id,name,bedroom,bathroom,carpark,monthly_price,yearly_price,sqft,furnish_type,property_type,city,state,pet_friendly,latitude,longitude,listing_url
301303,"Nexus Residences, Kuala Lumpur",1,1,0,800,9600,850.0,FULL,ROOM,Kuala Lumpur,Wilayah Persekutuan,False,3.1127906775203833,101.73089939683028,https://speedhome.com/reels/nexus-residences-kuala-lumpur-yaxyjdmc
301278,"Small Room (MALE ONLY) @ M Arisa, Sentul",1,1,0,600,7200,250.0,PARTIAL,ROOM,Kuala Lumpur,Wilayah Persekutuan,False,3.203062750372859,101.69090282519508,https://speedhome.com/reels/small-room-male-only-m-arisa-sentul-bqlorpgx
301266,middle room Lena Residence,1,1,1,850,10200,1380.0,PARTIAL,ROOM,Shah Alam,Selangor,False,3.1572869968569424,101.71167450894322,https://speedhome.com/reels/middle-room-lena-residence-fznsuiic
301256,"Villa Tropika, Cheras",4,1,0,750,9000,1035.0,FULL,HIGHRISE,Kuala Lumpur,Wilayah Persekutuan,False,3.1186512074,101.7307591438,https://speedhome.com/reels/villa-tropika-cheras-yxjdyuar
301252,"Rampai Court Apartment 2, Kuala Lumpur",2,1,1,1150,13800,600.0,PARTIAL,HIGHRISE,Kuala Lumpur,Wilayah Persekutuan,True,3.192984589401359,101.73482559319949,https://speedhome.com/reels/rampai-court-apartment-2-kuala-lumpur-wkuikqwr
301248,"Middle Room (MALE ONLY) @ M Arisa, Sentul",1,1,0,750,9000,200.0,PARTIAL,ROOM,Kuala Lumpur,Wilayah Persekutuan,False,3.2033102,101.690313,https://speedhome.com/reels/middle-room-m-arisa-sentul-agfzybej
301242,"Arte, Kuchai Lama",1,1,1,1100,13200,,FULL,ROOM,Kuala Lumpur,Wilayah Persekutuan,True,3.0881071325677016,101.68778894603108,https://speedhome.com/reels/arte-kuchai-lama-wkgrdmgd
301239,"Bangsar Trade Centre, Kuala Lumpur",0,1,0,1600,19200,463.0,PARTIAL,HIGHRISE,Kuala Lumpur,Wilayah Persekutuan,False,3.1155444483,101.668035686,https://speedhome.com/reels/bangsar-trade-centre-kuala-lumpur-fhqaodeb
301231,"OUG Parklane, Old Klang Road",2,1,1,800,9600,150.0,PARTIAL,HIGHRISE,Kuala Lumpur,Wilayah Persekutuan,True,3.0669385488,101.6592890024,https://speedhome.com/reels/oug-parklane-old-klang-road-omgzwdwr
301229,"Armani Residence, Selangor",3,1,1,2000,24000,900.0,PARTIAL,HIGHRISE,Cheras,Selangor,True,3.031588248094941,101.79191843694426,https://speedhome.com/reels/armani-residence-selangor-bolcoavi
301216,"Astrum, Ampang",1,1,0,1600,19200,280.0,FULL,HIGHRISE,Kuala Lumpur,Wilayah Persekutuan,False,3.174793585023609,101.73618987826215,https://speedhome.com/reels/astrum-ampang-mkrbllzi
301214,"The Sentral Recidences, Kuala Lumpur",2,3,1,5500,66000,1400.0,PARTIAL,HIGHRISE,Kuala Lumpur,Wilayah Persekutuan,True,3.136976221190274,101.68937393789015,https://speedhome.com/reels/the-sentral-recidences-kuala-lumpur-bacnnwlj
301210,"Sentul Point Suite Apartments, Kuala Lumpur",3,2,1,2200,26400,850.0,PARTIAL,HIGHRISE,Kuala Lumpur,Wilayah Persekutuan,False,3.2027769364945065,101.68874782130715,https://speedhome.com/reels/sentul-point-suite-apartment-obhpgplz
301205,"Emerald 9, Cheras",2,1,1,2500,30000,675.0,NONE,HIGHRISE,Cheras,Selangor,False,3.0752121301411717,101.76219047670922,https://speedhome.com/reels/emerald-9-cheras-yqsmqvfp
301193,[KL Comfy Room] Utilites & WiFi Included,1,1,0,770,9240,910.0,FULL,ROOM,Kuala Lumpur,Wilayah Persekutuan,True,3.139,101.6869,https://speedhome.com/reels/kl-comfy-room-utilites-wifi-included-lqrghfuz
301165,"Ascenda Residence, Setapak",3,2,2,2000,24000,908.0,FULL,HIGHRISE,Kuala Lumpur,Wilayah Persekutuan,False,3.1932068485623812,101.71520057397379,https://speedhome.com/reels/ascenda-residence-setapak-asgslroj
301157,Taman Aston Bukit Mertajam,1,1,1,850,10200,600.0,PARTIAL,LANDED,Bukit Mertajam,Pulau Pinang,False,3.139,101.6869,https://speedhome.com/reels/taman-aston-bukit-mertajam-tpuhrcot
301140,"Anyaman Residence, Kuala Lumpur",1,1,0,950,11400,14.0,FULL,ROOM,Kuala Lumpur,Wilayah Persekutuan,False,3.0710417996,101.7075634003,https://speedhome.com/reels/anyaman-residence-kuala-lumpur-xvomlokq
301133,"Astrum, Ampang",0,1,0,1700,20400,280.0,FULL,HIGHRISE,Kuala Lumpur,Wilayah Persekutuan,True,3.174793585023609,101.73618987826215,https://speedhome.com/reels/astrum-ampang-dptdzmez
301124,Fera Residence,3,2,1,2600,31200,978.0,FULL,HIGHRISE,Kuala Lumpur,Wilayah Persekutuan,True,3.1919359028,101.7376899719,https://speedhome.com/reels/fera-residence-umitmgae
301111,"Laman Suria, Mont Kiara",2,2,2,2900,34800,1034.0,FULL,HIGHRISE,Kuala Lumpur,Wilayah Persekutuan,True,3.16881,101.65,https://speedhome.com/reels/laman-suria-mont-kiara-uhqvfmfj
301082,"Petalz Residences, Old Klang Road",1,1,0,1150,13800,300.0,FULL,ROOM,Kuala Lumpur,Wilayah Persekutuan,True,3.0852874960565866,101.66156726137696,https://speedhome.com/reels/petalz-residences-old-klang-road-dutyuqvz
301073,"Maxim Citylights, Sentul",3,2,2,1800,21600,1009.0,NONE,HIGHRISE,Kuala Lumpur,Wilayah Persekutuan,True,3.2072863583,101.6906520724,https://speedhome.com/reels/maxim-citylights-sentul-vyctxwze
301072,"Flat Taman Sri Murni Fasa 3, Kuala Lumpur",2,1,2,950,11400,650.0,NONE,HIGHRISE,Batu Caves,Selangor,False,3.2353200253879084,101.66311052149015,https://speedhome.com/reels/flat-taman-sri-murni-fasa-2-welwahao
301060,"Bukit Damansara, Damansara Heights",4,3,2,8500,102000,2500.0,FULL,LANDED,Kuala Lumpur,Wilayah Persekutuan,False,3.1520966609,101.6566183604,https://speedhome.com/reels/bukit-damansara-damansara-heights-wfvyjwdp
301059,"The Establishment, Brickfields",1,1,0,1200,14400,150.0,FULL,HIGHRISE,Kuala Lumpur,Wilayah Persekutuan,False,3.127981,101.680239,https://speedhome.com/reels/the-establishment-brickfields-frxtcnoq
301043,"Pearl Suria, Old Klang Road",3,2,1,2600,31200,900.0,FULL,HIGHRISE,Kuala Lumpur,Wilayah Persekutuan,False,3.0853709135,101.6738560796,https://speedhome.com/reels/pearl-suria-old-klang-road-eaalgzxq
301042,"Chambers Residence, Kuala Lumpur",0,1,1,2200,26400,450.0,PARTIAL,HIGHRISE,Kuala Lumpur,Wilayah Persekutuan,False,3.167427814418542,101.69562076666155,https://speedhome.com/reels/chambers-residence-kuala-lumpur-hhpnxodf
301024,"KLCC LEGASI Kampong Bharu, Kuala Lumpur",3,2,1,2999,35988,950.0,FULL,HIGHRISE,Kuala Lumpur,Wilayah Persekutuan,False,3.160608196605549,101.70173253642707,https://speedhome.com/reels/legasi-kampong-bharu-kuala-lumpur-pszdxlcd
301016,"Residence Sunway Belfield, Kuala Lumpur",2,2,1,4000,48000,788.0,FULL,HIGHRISE,Kuala Lumpur,Wilayah Persekutuan,False,3.135916959742901,101.69773842433254,https://speedhome.com/reels/residence-sunway-belfield-kuala-lumpur-moplonae
301015,"Residensi Rampai 2, Kuala Lumpur",1,1,1,980,11760,950.0,FULL,HIGHRISE,Kuala Lumpur,Wilayah Persekutuan,False,3.1930928188,101.7266178131,https://speedhome.com/reels/residensi-rampai-2-kuala-lumpur-xyavjfaf
300980,"The ERA, Segambut",1,1,1,2000,24000,280.0,PARTIAL,HIGHRISE,Kuala Lumpur,Wilayah Persekutuan,True,3.1819735165,101.6753232479,https://speedhome.com/reels/the-era-segambut-dsfsvhfe
300977,"Bloomsvale Residence, Old Klang Road",2,2,1,2750,33000,800.0,FULL,HIGHRISE,Kuala Lumpur,Wilayah Persekutuan,True,3.0754786519970376,101.6605019433555,https://speedhome.com/reels/bloomsvale-residence-old-klang-road-vaouhbcf
300972,"SkyVille 8, Kuala Lumpur",1,1,0,1150,13800,300.0,FULL,HIGHRISE,Kuala Lumpur,Wilayah Persekutuan,True,3.0823926163,101.6677567363,https://speedhome.com/reels/skyville-8-kuala-lumpur-ourlcvrl
300958,"Green Avenue, Bukit Jalil",1,1,0,500,6000,100.0,FULL,HIGHRISE,Kuala Lumpur,Wilayah Persekutuan,True,3.0604890209,101.6745239496,https://speedhome.com/reels/green-avenue-bukit-jalil-figsdmwo
300956,"Armani Residence, Selangor.",1,1,1,950,11400,200.0,PARTIAL,HIGHRISE,Cheras,Selangor,False,3.031588248094941,101.79191843694426,https://speedhome.com/reels/armani-residence-selangor-izwjprbc
300926,Riana dutamas savio,2,2,1,2400,28800,904.0,FULL,HIGHRISE,Kuala Lumpur,Wilayah Persekutuan,False,3.1854116383,101.6672234233,https://speedhome.com/reels/riana-dutamas-savio-sraetfwb
300867,"Kampung Baru, Seri Kembangan",3,1,3,2100,25200,1800.0,FULL,LANDED,Seri Kembangan,Selangor,False,3.023957588804779,101.70264856752225,https://speedhome.com/reels/fully-furnished-aircond-terrace-house-near-sjkc-serdang-baru-1-and-mrt-lmvbqwrm
300860,"Taman Dagang, Ampang",3,2,2,1000,12000,1500.0,PARTIAL,LANDED,Ampang,Selangor,False,3.148701,101.758847,https://speedhome.com/reels/taman-dagang-ampang-ztojrocc
300837,"Serini Melawati, Taman Melawati",1,1,2,2000,24000,633.0,PARTIAL,HIGHRISE,Hulu Langat,Wilayah Persekutuan,False,3.213302836147503,101.7468675148142,https://speedhome.com/reels/serini-melawati-taman-melawati-awpzaxwe
300833,"The Elements, Ampang",3,2,2,3500,42000,1574.0,NONE,HIGHRISE,Kuala Lumpur,Wilayah Persekutuan,False,3.1612557298,101.7481130362,https://speedhome.com/reels/the-elements-ampang-ipabynhj
300804,"Bennington Residences, Setapak",3,2,2,1800,21600,1236.0,PARTIAL,HIGHRISE,Kuala Lumpur,Wilayah Persekutuan,True,3.1942497335,101.7157816887,https://speedhome.com/reels/bennington-residences-setapak-cdnhlmyj
300734,"Neu Suites, Kuala Lumpur",1,1,0,1600,19200,300.0,NONE,HIGHRISE,Kuala Lumpur,Wilayah Persekutuan,False,3.1624802903479177,101.73706364844472,https://speedhome.com/reels/neu-suites-kuala-lumpur-mfuxjqyo
300733,South View,3,2,1,3300,39600,990.0,FULL,HIGHRISE,Kuala Lumpur,Wilayah Persekutuan,False,3.1139053613,101.6651469469,https://speedhome.com/reels/south-view-mmhwwetz
300635,"Skyline, Kuala Lumpur",4,2,2,5000,60000,1080.0,FULL,HIGHRISE,Kuala Lumpur,Wilayah Persekutuan,True,3.1335139300106456,101.71248945301186,https://speedhome.com/reels/skyline-kuala-lumpur-upwsrrqt
300633,"Residensi Riamas, Kuala Lumpur",3,2,1,3000,36000,900.0,FULL,HIGHRISE,Kuala Lumpur,Wilayah Persekutuan,True,3.080882493547077,101.66718199549679,https://speedhome.com/reels/residensi-riamas-kuala-lumpur-cbbyosgj
300631,"8 Petaling, Kuala Lumpur",5,4,3,3200,38400,1890.0,FULL,HIGHRISE,Kuala Lumpur,Wilayah Persekutuan,True,3.066396521185332,101.69095149737414,https://speedhome.com/reels/8-petaling-kuala-lumpur-kjfgdoyo
300623,"Taman Taming Mutiara, Kajang",7,7,4,5400,64800,3694.0,FULL,LANDED,Kajang,Selangor,True,3.05984912404942,101.80701836285043,https://speedhome.com/reels/taman-taming-mutiara-kajang-nhtzdaey
300618,"M Arisa Sentul, Kuala Lumpur",1,1,0,850,10200,,PARTIAL,ROOM,Kuala Lumpur,Wilayah Persekutuan,False,3.2033102,101.690313,https://speedhome.com/reels/m-arisa-sentul-kuala-lumpur-kcmqdghv
300612,"Residensi Amansuri City Sentral, Kuala Lumpur",3,2,1,1750,21000,900.0,NONE,HIGHRISE,Kuala Lumpur,Wilayah Persekutuan,False,3.0998859395973914,101.70679024041532,https://speedhome.com/reels/residensi-amansuri-city-sentral-raapqhnf
300611,RC Residence,2,2,1,2500,30000,800.0,FULL,HIGHRISE,Kuala Lumpur,Wilayah Persekutuan,False,3.108290430642337,101.70527818650879,https://speedhome.com/reels/rc-residence-lmaavzkc
300607,"M Arisa Sentul, Kuala Lumpur",1,1,0,1150,13800,300.0,PARTIAL,ROOM,Kuala Lumpur,Wilayah Persekutuan,False,3.2033102,101.690313,https://speedhome.com/reels/m-arisa-sentul-kuala-lumpur-sfropprt
300598,"D'Suria Condominium, Ampang",3,2,1,2200,26400,1060.0,FULL,HIGHRISE,Ampang,Selangor,False,3.1516917291232196,101.74828261847398,https://speedhome.com/reels/dsuria-condominium-ampang-piojtlac
300596,"United Point Residence, Segambut",3,2,1,3300,39600,958.0,FULL,HIGHRISE,Kuala Lumpur,Wilayah Persekutuan,False,3.1918287809,101.6535115242,https://speedhome.com/reels/united-point-residence-segambut-jisissyx
300594,"Stonor 3, Kuala Lumpur",1,1,1,4000,48000,689.0,FULL,HIGHRISE,Kuala Lumpur,Wilayah Persekutuan,False,3.1539069221,101.72047019,https://speedhome.com/reels/stonor-3-kuala-lumpur-yelhhjtj
300587,"Vista Pinggiran, Seri Kembangan",3,2,1,1800,21600,815.0,FULL,HIGHRISE,Seri Kembangan,Selangor,False,2.9929059344,101.6776621342,https://speedhome.com/reels/vista-pinggiran-seri-kembangan-rfigaskp
300583,"Damai Vista Condominium, Cheras",1,1,0,700,8400,,FULL,ROOM,Cheras,Selangor,False,3.051531556651112,101.74391518751509,https://speedhome.com/reels/damai-vista-condominium-cheras-onaqmgpf
300536,Taman Klang Ria (Middle Room with Attached Bathroom),1,1,1,550,6600,,PARTIAL,ROOM,Klang,Selangor,True,3.1572869968569424,101.71167450894322,https://speedhome.com/reels/middle-room-attach-bathroom-fnavyqgu
300511,"One Residence, Kuala Luimpur",1,1,1,1800,21600,,FULL,ROOM,Kuala Lumpur,Wilayah Persekutuan,True,3.1273607971,101.7122197151,https://speedhome.com/reels/one-residence-kuala-luimpur-rbamaxbt
300499,"Razak City Residences, Kuala Lumpur",3,3,1,3000,36000,1045.0,PARTIAL,HIGHRISE,Kuala Lumpur,Wilayah Persekutuan,False,3.108290430642337,101.70527818650879,https://speedhome.com/reels/razak-city-residences-kuala-lumpur-ufncwwgh
300462,"Apartment Taman Seri Murni Fasa 2, Batu Caves",3,2,1,1600,19200,800.0,PARTIAL,HIGHRISE,Batu Caves,Selangor,True,3.2353972432003704,101.6616689366567,https://speedhome.com/reels/selayang-nguyflqr
300413,"Kondominium Selayang 228, Batu Caves",3,2,1,1800,21600,965.0,FULL,HIGHRISE,Batu Caves,Selangor,False,3.2450348561,101.6677165031,https://speedhome.com/reels/kondominium-selayang-228-jrfcseci
300391,"Residensi PR1MA Alam Damai, Kuala Lumpur",3,2,1,1800,21600,995.0,PARTIAL,HIGHRISE,Kuala Lumpur,Wilayah Persekutuan,True,3.0568987,101.7419504,https://speedhome.com/reels/residensi-pr1ma-alam-damai-kuala-lumpur-rdlcoplg
300356,"Razak City Residences, Kuala Lumpur",2,2,1,2300,27600,1640.0,PARTIAL,HIGHRISE,Kuala Lumpur,Wilayah Persekutuan,False,3.108290430642337,101.70527818650879,https://speedhome.com/reels/razak-city-residences-kuala-lumpur-jkvoggrd
300293,"The Havre, Bukit Jalil",1,1,0,950,11400,,FULL,ROOM,Kuala Lumpur,Wilayah Persekutuan,True,3.057789207,101.6657209396,https://speedhome.com/reels/the-havre-bukit-jalil-ifaxrhdy
300280,M Astra,1,1,0,800,9600,,PARTIAL,ROOM,Kuala Lumpur,Wilayah Persekutuan,True,3.1572869968569424,101.71167450894322,https://speedhome.com/reels/m-astra-gmhzcekb
300279,M Astra,1,1,0,1000,12000,,PARTIAL,ROOM,Kuala Lumpur,Wilayah Persekutuan,True,3.1572869968569424,101.71167450894322,https://speedhome.com/reels/m-astra-yjfduvsn
300278,M Astra,1,1,0,1200,14400,,PARTIAL,ROOM,Kuala Lumpur,Wilayah Persekutuan,True,3.1572869968569424,101.71167450894322,https://speedhome.com/reels/m-astra-xnydeaom
300254,"B11 Parkland Residence, Cheras",3,2,2,2300,27600,875.0,FULL,HIGHRISE,Cheras,Selangor,False,3.0426924697819824,101.77220175396727,https://speedhome.com/reels/b11-parkland-residence-cheras-synhuzsi
300240,"Res 280 Condominium, Selayang",1,1,0,700,8400,150.0,FULL,ROOM,Batu Caves,Selangor,False,2.9866595,101.593473,https://speedhome.com/reels/res-280-condominium-selayang-gggujyos
300239,"Res 280 Condominium, Selayang",1,1,0,900,10800,,FULL,ROOM,Batu Caves,Selangor,False,2.9866595,101.593473,https://speedhome.com/reels/res-280-condominium-selayang-xzzfjzta
300199,"Savvy Riana Dutamas 2, Segambut",3,2,2,2700,32400,1203.0,PARTIAL,HIGHRISE,Kuala Lumpur,Wilayah Persekutuan,False,3.1863007464961126,101.66833813614836,https://speedhome.com/reels/savvy-riana-dutamas-2-segambut-cdgjemua
300189,"Empire City, Petaling Jaya",0,1,0,1300,15600,447.0,PARTIAL,HIGHRISE,Kuala Lumpur,Wilayah Persekutuan,False,3.1683152498,101.6154402494,https://speedhome.com/reels/empire-city-petaling-jaya-ahhondli
300147,"Merdaka View Apartment, Kuala Lumpur",4,2,0,2400,28800,1500.0,FULL,HIGHRISE,Kuala Lumpur,Wilayah Persekutuan,False,3.135795065431042,101.70283255336535,https://speedhome.com/reels/merdaka-view-apartment-kuala-lumpur-mjmogcie
300139,"Savvy Riana Dutamas 2, Segambut",1,1,0,888,10656,100.0,FULL,ROOM,Kuala Lumpur,Wilayah Persekutuan,False,3.185969205113495,101.66791106549252,https://speedhome.com/reels/savvy-riana-dutamas-2-lhvlldkz
300094,"Jalan Pantai, Port Dickson",1,1,1,300,3600,,NONE,ROOM,Kuala Lumpur,Wilayah Persekutuan,True,2.5036634623633818,101.83596189432512,https://speedhome.com/reels/shop-lot-ygcbxscv
300058,Residensi Bukit Kiara,3,2,2,1450,17400,900.0,NONE,HIGHRISE,Klang,Selangor,False,3.0037790060244007,101.75616973929682,https://speedhome.com/reels/residensi-bukit-kiara-odncbrea
299977,"Taman Megah, Kepong",3,4,2,2500,30000,3000.0,NONE,LANDED,Kuala Lumpur,Wilayah Persekutuan,False,3.07973279042273,101.76103229633925,https://speedhome.com/reels/semi-d-double-story-fnbtkxym
299976,"The Valley Residences Skysierra, Setiawangsa",1,1,1,1700,20400,300.0,FULL,HIGHRISE,Kuala Lumpur,Wilayah Persekutuan,False,3.1771300022077056,101.7484491676035,https://speedhome.com/reels/the-valley-residences-skysierra-setiawangsa-jactvhdc
299938,"Serdang Skyvillas, Seri Kembangan",4,2,2,1500,18000,1000.0,FULL,HIGHRISE,Seri Kembangan,Selangor,True,3.0409743888794982,101.70657749435829,https://speedhome.com/reels/serdang-skyvillas-seri-kembangan-xmoxecsq
299928,"The Pano, Kuala Lumpur",1,1,1,1700,20400,500.0,PARTIAL,HIGHRISE,Kuala Lumpur,Wilayah Persekutuan,True,3.1855916,101.6815326,https://speedhome.com/reels/the-pano-kuala-lumpur-nzncumdv
299881,"Arte Plus, Ampang",2,2,1,1900,22800,750.0,PARTIAL,HIGHRISE,Kuala Lumpur,Wilayah Persekutuan,False,3.161943,101.747782,https://speedhome.com/reels/arte-plus-ampang-bhcrlthp
299817,"MH Platinum 2 Residences, Setapak",3,2,1,1900,22800,650.0,NONE,HIGHRISE,Kuala Lumpur,Wilayah Persekutuan,False,3.195689818314526,101.72293920927615,https://speedhome.com/reels/mh-platinum-2-residences-setapak-svmtlhgz
299809,"Sophia Condominium, Mont Kiara",2,2,1,3500,42000,1000.0,FULL,HIGHRISE,Kuala Lumpur,Wilayah Persekutuan,True,3.1701,101.654,https://speedhome.com/reels/sophia-condominium-mont-kiara-ahomfuix
299802,"Le Yuan Residence, Kuchai Lama",3,2,2,2500,30000,1392.0,NONE,HIGHRISE,Kuala Lumpur,Wilayah Persekutuan,True,3.079282752155634,101.68935399565409,https://speedhome.com/reels/le-yuan-residence-kuchai-lama-wtlcrohy
299793,"Duta Park Residences, Kuala Lumpur",3,2,2,4000,48000,1129.0,FULL,HIGHRISE,Kuala Lumpur,Wilayah Persekutuan,False,3.1706746691253733,101.68638966137273,https://speedhome.com/reels/duta-park-residences-pqdvkwmw
299780,Kepong,1,1,0,450,5400,143.0,NONE,ROOM,Kuala Lumpur,Wilayah Persekutuan,True,3.2025,101.6372222,https://speedhome.com/reels/kepong-ejenacbf
299771,"Magna Ville, Batu Caves",1,1,0,500,6000,200.0,PARTIAL,ROOM,Batu Caves,Selangor,False,3.245219973557231,101.65434184337253,https://speedhome.com/reels/magna-ville-batu-caves-uygcojrb
299665,"Menara Menjalara, Bandar Menjalara",1,1,0,750,9000,150.0,PARTIAL,ROOM,Kuala Lumpur,Wilayah Persekutuan,True,3.191443,101.627247,https://speedhome.com/reels/menara-menjalara-bandar-menjalara-pgytepsb
299586,"Quinn Residence, Wangsa Maju",2,2,1,3000,36000,698.0,FULL,HIGHRISE,Kuala Lumpur,Wilayah Persekutuan,False,3.2058228,101.731792,https://speedhome.com/reels/quinn-residence-wangsa-maju-qienjmcc
299552,"Menara Menjalara, Bandar Menjalara",1,1,0,780,9360,,PARTIAL,ROOM,Kuala Lumpur,Wilayah Persekutuan,False,3.191443,101.627247,https://speedhome.com/reels/menara-menjalara-bandar-menjalara-ncotolzq
299517,"One Cochrane Residences, Kuala Lumpur",2,2,2,3600,43200,980.0,FULL,HIGHRISE,Kuala Lumpur,Wilayah Persekutuan,False,3.133509272056827,101.7208633,https://speedhome.com/reels/one-cochrane-residences-kuala-lumpur-qzarzniz
299428,"Endah Promenade, Sri Petaling",3,2,1,2250,27000,1000.0,FULL,HIGHRISE,Kuala Lumpur,Wilayah Persekutuan,True,3.063274536,101.6969364882,https://speedhome.com/reels/endah-promenade-sri-petaling-tcxdppsb
299412,"Bennington Residences, Setapak",4,2,2,2200,26400,1239.0,PARTIAL,HIGHRISE,Kuala Lumpur,Wilayah Persekutuan,True,3.1942497335,101.7157816887,https://speedhome.com/reels/bennington-residences-setapak-bwzslxcn
299293,"The ERA, Segambut",1,1,0,900,10800,371.0,FULL,ROOM,Kuala Lumpur,Wilayah Persekutuan,False,3.1819735165,101.6753232479,https://speedhome.com/reels/the-era-segambut-hazjsjcb
299209,"Taman Bukit Hatamas, Kajang",1,1,1,800,9600,,NONE,ROOM,Cheras,Selangor,False,3.1572869968569424,101.71167450894322,https://speedhome.com/reels/taman-bukit-hartamas-svcwwqrv
299091,"Nidoz Residences, Desa Petaling",1,1,0,750,9000,,NONE,ROOM,Kuala Lumpur,Wilayah Persekutuan,False,3.0858155146,101.6997313499,https://speedhome.com/reels/nidoz-residences-desa-petaling-alrhdqjx
298974,"Amaya Maluri, Cheras",2,2,1,2100,25200,657.0,FULL,HIGHRISE,Kuala Lumpur,Wilayah Persekutuan,True,3.1274143613,101.7291900516,https://speedhome.com/reels/amaya-maluri-cheras-jzmxfvft
298890,"Neu Suites, Kuala Lumpur",1,1,1,1100,13200,150.0,FULL,ROOM,Kuala Lumpur,Wilayah Persekutuan,False,3.1624802903479177,101.73706364844472,https://speedhome.com/reels/neu-suites-kuala-lumpur-lgbnwnqk
298863,"Gardenville, Selayang Heights",3,2,1,1600,19200,1200.0,PARTIAL,HIGHRISE,Batu Caves,Selangor,False,3.270067,101.652342,https://speedhome.com/reels/gardenville-selayang-heights-witqswoq
298843,"The ERA, Segambut",0,1,1,2000,24000,301.0,PARTIAL,HIGHRISE,Kuala Lumpur,Wilayah Persekutuan,False,3.1819735165,101.6753232479,https://speedhome.com/reels/the-era-segambut-bmkcskjh
298694,"The Pano, Kuala Lumpur",1,1,1,1400,16800,300.0,PARTIAL,HIGHRISE,Kuala Lumpur,Wilayah Persekutuan,False,3.1855916,101.6815326,https://speedhome.com/reels/the-pano-kuala-lumpur-bzxrvqbz
298607,"Mercu Jalil, Bukit Jalil",3,2,1,1900,22800,1000.0,PARTIAL,HIGHRISE,Kuala Lumpur,Wilayah Persekutuan,True,3.048236056408,101.66112157334268,https://speedhome.com/reels/mercu-jalil-bukit-jalil-kkysyxvu
298593,"Astoria, Ampang",2,2,2,2400,28800,735.0,FULL,HIGHRISE,Kuala Lumpur,Wilayah Persekutuan,True,3.1626055052,101.7477107048,https://speedhome.com/reels/astoria-ampang-wwqyiicr
298312,"Sqwhere Service Residence, Sungai Buloh",4,4,3,5500,66000,2200.0,PARTIAL,HIGHRISE,Shah Alam,Selangor,True,3.19683502765782,101.57749966565822,https://speedhome.com/reels/sqwhere-service-residence-sungai-buloh-bniieqhp
298305,"M Arisa Sentul, Kuala Lumpur",4,3,2,3200,38400,1124.0,FULL,HIGHRISE,Kuala Lumpur,Wilayah Persekutuan,True,3.2033102,101.690313,https://speedhome.com/reels/m-arisa-sentul-kuala-lumpur-bbdgcdzo
298108,"One Cochrane Residences, Kuala Lumpur",1,1,2,1690,20280,,FULL,ROOM,Kuala Lumpur,Wilayah Persekutuan,True,3.133509272056827,101.7208633,https://speedhome.com/reels/one-cochrane-residence--xjojsnyc
297944,"MET 1 Residences, Kuala Lumpur",1,1,1,2999,35988,677.0,FULL,HIGHRISE,Kuala Lumpur,Wilayah Persekutuan,False,3.1494727,101.7139056,https://speedhome.com/reels/met-1-residences-kuala-lumpur-uiachrkj
297508,"Savio Riana Dutamas, Segambut",2,2,1,2300,27600,800.0,FULL,HIGHRISE,Kuala Lumpur,Wilayah Persekutuan,True,3.1853205678548067,101.66865566562346,https://speedhome.com/reels/savio-riana-dutamas-segambut-ajgluwcp
297495,"Kenwingston Platz Residence, Setapak",2,2,1,2250,27000,650.0,FULL,HIGHRISE,Kuala Lumpur,Wilayah Persekutuan,False,3.2180064194885287,101.71295072591177,https://speedhome.com/reels/kenwingston-platz-residence-setapak-rzoiebyn
297459,"Armani Residence,Kuala Lumpur",1,1,0,3599,43188,456.0,FULL,HIGHRISE,Kuala Lumpur,Wilayah Persekutuan,False,3.1381976348407408,101.76085803068847,https://speedhome.com/reels/armani-raja-uda-cihbtrgu
297455,"Suasana Sentral Loft, Kuala Lumpur",3,2,1,4100,49200,1584.0,FULL,HIGHRISE,Kuala Lumpur,Wilayah Persekutuan,False,3.1313882,101.6841041,https://speedhome.com/reels/suasana-sentral-loft-kuala-lumpur-puexcrri
297423,"Reizz Residence, Kuala Lumpur",2,2,1,3100,37200,860.0,FULL,HIGHRISE,Kuala Lumpur,Wilayah Persekutuan,False,3.161448555,101.7466163635,https://speedhome.com/reels/reizz-residence-nryaivdv
297111,"Jalan Limau Manis,Bangsar Park Kuala Lumpur",1,1,0,800,9600,200.0,NONE,ROOM,Kuala Lumpur,Wilayah Persekutuan,True,3.1323854869365344,101.6739699760552,https://speedhome.com/reels/jalan-limau-manis-kuala-lumpur-fqjshlou
297006,"Lakeville Residence, Batu Caves",2,2,1,1700,20400,655.0,NONE,HIGHRISE,Batu Caves,Selangor,True,3.2088740704166456,101.66891330224395,https://speedhome.com/reels/lakeville-residence-batu-caves-jvkccqkz
297005,Southview service apartment,1,1,0,1350,16200,,FULL,ROOM,Kuala Lumpur,Wilayah Persekutuan,False,3.1572869968569424,101.71167450894322,https://speedhome.com/reels/southview-service-apartment-obnkjlma
297004,"Marc Residence, Kuala Lumpur",2,2,0,3800,45600,1030.0,FULL,HIGHRISE,Kuala Lumpur,Wilayah Persekutuan,False,3.15527,101.71,https://speedhome.com/reels/marc-residence-kuala-lumpur-bwydeakm
296999,"Menara Orkid, Sentul",1,1,0,1500,18000,,PARTIAL,ROOM,Kuala Lumpur,Wilayah Persekutuan,False,3.1811058202,101.6962391138,https://speedhome.com/reels/menara-orkid-sentul-ktjrytqx
296934,"M Arisa Sentul, Kuala Lumpur",2,2,1,2400,28800,708.0,FULL,HIGHRISE,Kuala Lumpur,Wilayah Persekutuan,False,3.2033102,101.690313,https://speedhome.com/reels/m-arisa-sentul-kuala-lumpur-inklgkgb
296751,"Bayu Parkville, Balakong",3,2,1,1800,21600,1000.0,PARTIAL,LANDED,Seri Kembangan,Selangor,False,3.0079485705,101.7363649607,https://speedhome.com/reels/bayu-parkville-balakong-lavmsbqn
296666,Sofea Homes,4,3,1,2599,31188,1800.0,NONE,LANDED,Kuala Lumpur,Wilayah Persekutuan,False,3.1572869968569424,101.71167450894322,https://speedhome.com/reels/sofea-homes-qlaogobx
296643,"M Arisa Sentul, Kuala Lumpur",2,2,1,2400,28800,708.0,FULL,HIGHRISE,Kuala Lumpur,Wilayah Persekutuan,False,3.2033102,101.690313,https://speedhome.com/reels/m-arisa-fpqlklfp
296617,"3rdNvenue, Kuala Lumpur",1,1,0,950,11400,350.0,FULL,HIGHRISE,Kuala Lumpur,Wilayah Persekutuan,True,3.16321545283493,101.73697385138297,https://speedhome.com/reels/3rdnvenue-kuala-lumpur-sdvwzxos
296607,The Ridge KL East,0,1,1,2100,25200,651.0,FULL,HIGHRISE,Hulu Langat,Wilayah Persekutuan,False,3.225458,101.730612,https://speedhome.com/reels/the-ridge-kl-east-udaahhco
296530,"Liberty Arc, Ampang Ukay",1,1,1,1650,19800,450.0,FULL,HIGHRISE,Ampang,Selangor,False,3.1727609015,101.7565083504,https://speedhome.com/reels/liberty-arc-ampang-ukay-dwtlcqnc
296509,"Dahlia Apartment, Setapak",3,2,1,1300,15600,900.0,NONE,HIGHRISE,Kuala Lumpur,Wilayah Persekutuan,False,3.1979240003,101.7298042774,https://speedhome.com/reels/dahlia-apartment-setapak-qzexxdkm
296507,"Pesona Villa, Kuala Lumpur",3,2,1,1300,15600,808.0,PARTIAL,HIGHRISE,Hulu Langat,Wilayah Persekutuan,False,3.2157242,101.764947,https://speedhome.com/reels/pesona-villa-kuala-lumpur-sksvlgsx
296431,"Nue Suites, Kuala Lumpur",1,1,0,1000,12000,500.0,FULL,ROOM,Kuala Lumpur,Wilayah Persekutuan,False,3.139003,101.686855,https://speedhome.com/reels/nue-suites-kuala-lumpur-iwkqbgon
296255,"Seri Riana Residence, Wangsa Maju",3,2,2,3000,36000,1000.0,FULL,HIGHRISE,Kuala Lumpur,Wilayah Persekutuan,True,3.1957922845,101.7395675182,https://speedhome.com/reels/seri-riana-residence-wangsa-maju-witmsesf
296116,"Residence Sunway Belfield, Kuala Lumpur",3,2,2,3800,45600,1055.0,FULL,HIGHRISE,Kuala Lumpur,Wilayah Persekutuan,False,3.135916959742901,101.69773842433254,https://speedhome.com/reels/residence-sunway-belfield-kuala-lumpur-svlhxtqt
295834,Pandan Perdana Apartment,3,1,0,750,9000,805.0,NONE,HIGHRISE,Kuala Lumpur,Wilayah Persekutuan,True,3.116209,101.739053,https://speedhome.com/reels/pandan-perdana-shop-apartment-wuygynie
295000,"Andalucia, Pantai",1,1,1,1100,13200,,FULL,ROOM,Kuala Lumpur,Wilayah Persekutuan,True,3.1065026557,101.6620141268,https://speedhome.com/reels/andalucia-pantai-nrgvbjxr
294722,"Dorsett Hartamas, Kuala Lumpur",0,1,2,3000,36000,721.0,FULL,HIGHRISE,Kuala Lumpur,Wilayah Persekutuan,False,3.1627638811305037,101.65577358650695,https://speedhome.com/reels/dorsett-hartamas-kuala-lumpur-bqqtivkv
294549,"Residensi Brickfields, Kuala Lumpur",3,2,2,2900,34800,923.0,PARTIAL,HIGHRISE,Kuala Lumpur,Wilayah Persekutuan,False,3.1251074646488237,101.68098624337196,https://speedhome.com/reels/residensi-brickfields-kuala-lumpur-ttvsiibb
294338,"Villa Crystal, Segambut",1,2,2,2000,24000,1050.0,NONE,HIGHRISE,Kuala Lumpur,Wilayah Persekutuan,True,3.1839445769,101.6508507729,https://speedhome.com/reels/villa-crystal-segambut-lyfindli
294009,"Nidoz Residences, Desa Petaling",4,2,2,4000,48000,1289.0,FULL,HIGHRISE,Kuala Lumpur,Wilayah Persekutuan,True,3.0858155146,101.6997313499,https://speedhome.com/reels/nidoz-residences-desa-petaling-tiylqejw
293946,"Citizen, Kuala Lumpur",4,2,2,2800,33600,1094.0,FULL,HIGHRISE,Kuala Lumpur,Wilayah Persekutuan,True,3.0833728841,101.6617083549,https://speedhome.com/reels/citizen-kuala-lumpur-innsplrh
293863,"Elmina East, Shah Alam",5,5,3,3600,43200,3300.0,FULL,LANDED,Shah Alam,Selangor,False,3.1924599138063696,101.51625126666175,https://speedhome.com/reels/elmina-east-shah-alam-ntjirpwm
293592,"Regalia Residence, Kuala Lumpur",0,1,0,2400,28800,660.0,FULL,HIGHRISE,Kuala Lumpur,Wilayah Persekutuan,False,3.164429,101.692577,https://speedhome.com/reels/regalia-residence-kuala-lumpur-sotyxzph
293259,"Arena Green, Bukit Jalil",3,2,1,1700,20400,820.0,FULL,HIGHRISE,Kuala Lumpur,Wilayah Persekutuan,False,3.0545603953987506,101.68785271098484,https://speedhome.com/reels/arena-green-bukit-jalil-kdmuuilt
293110,"The Rainz, Bukit Jalil",1,1,1,750,9000,,FULL,ROOM,Kuala Lumpur,Wilayah Persekutuan,False,3.0640459082,101.6674643755,https://speedhome.com/reels/the-rainz-bukit-jalil-enczzbhm
293029,"Trinity Aquata, Sungai Besi",1,1,0,980,11760,,FULL,ROOM,Kuala Lumpur,Wilayah Persekutuan,False,3.0792375407,101.7040336132,https://speedhome.com/reels/trinity-aquata-sungai-besi-ldherjtx
292697,"Bayu Residensi, Sri Gombak",1,1,2,1400,16800,550.0,NONE,HIGHRISE,Batu Caves,Selangor,False,3.230281488782345,101.66662624656281,https://speedhome.com/reels/bayu-residensi-seri-temenggung-batu-caves-yoaxnquu
292656,Duta Ria Condominium,3,2,1,2000,24000,1326.0,PARTIAL,HIGHRISE,Kuala Lumpur,Wilayah Persekutuan,True,3.17858,101.655,https://speedhome.com/reels/duta-ria-condominium-wzskavnt
292652,M Vertica,3,2,2,2100,25200,850.0,NONE,HIGHRISE,Kuala Lumpur,Wilayah Persekutuan,True,3.1186155789280656,101.72651394129184,https://speedhome.com/reels/m-vertica-vbxqpscq
292599,Old Klang Road,1,1,1,750,9000,,PARTIAL,ROOM,Kuala Lumpur,Wilayah Persekutuan,True,3.0983499777,101.6741752625,https://speedhome.com/reels/old-klang-road-xfhlhuea
292578,M Arisa Pelangi,3,2,1,2875,34500,878.0,FULL,HIGHRISE,Kuala Lumpur,Wilayah Persekutuan,True,3.2033102,101.690313,https://speedhome.com/reels/m-arisa-pelangi-oggtkiku
291822,"Residensi M Luna, Kuala Lumpur",2,2,2,2300,27600,700.0,FULL,HIGHRISE,Kuala Lumpur,Wilayah Persekutuan,True,3.228896597432873,101.65185288274867,https://speedhome.com/reels/residensi-m-luna-kuala-lumpur-jftfqrci
291795,"Endah Ria Condominium, Kuala Lumpur",3,2,1,2000,24000,950.0,FULL,HIGHRISE,Kuala Lumpur,Wilayah Persekutuan,True,3.0640031399091168,101.69929487904118,https://speedhome.com/reels/endah-ria-fully-furnish-kyzdhcoh
291725,"Taman Bukit Anggerik, Cheras",3,1,2,1300,15600,900.0,NONE,LANDED,Kuala Lumpur,Wilayah Persekutuan,False,3.0642923,101.7465627,https://speedhome.com/reels/taman-bukit-anggerik-cheras-aplbluaf
291688,"Prisma Cheras, Kuala Lumpur",1,1,0,700,8400,,FULL,ROOM,Kuala Lumpur,Wilayah Persekutuan,False,3.0990784718,101.7287367582,https://speedhome.com/reels/prisma-cheras-kuala-lumpur-havdcfbn
291680,"MH Platinum 2 Residences, Setapak",3,2,1,1500,18000,692.0,PARTIAL,HIGHRISE,Kuala Lumpur,Wilayah Persekutuan,True,3.195689818314526,101.72293920927615,https://speedhome.com/reels/mh-platinum-2-residences-setapak-acgkknoh
291670,Female Deluxe Studio Room,1,1,1,950,11400,,FULL,ROOM,Kuala Lumpur,Wilayah Persekutuan,False,3.2308639526357106,101.6434620378264,https://speedhome.com/reels/female-deluxe-room-kefjpqfe
291635,"OUG Parklane, Old Klang Road",3,2,1,1900,22800,950.0,FULL,HIGHRISE,Kuala Lumpur,Wilayah Persekutuan,False,3.0669385488,101.6592890024,https://speedhome.com/reels/oug-parklane-old-klang-road-kkkbydjs
291618,Sunway Belfield Residence,2,2,0,3000,36000,797.0,FULL,HIGHRISE,Kuala Lumpur,Wilayah Persekutuan,True,3.135916959742901,101.69773842433254,https://speedhome.com/reels/sunway-belfield-residence-pycizxrt
291560,"Taman Desa Cheras, Kuala Lumpur",2,1,0,700,8400,665.0,NONE,HIGHRISE,Kuala Lumpur,Wilayah Persekutuan,True,3.056824986,101.7393422127,https://speedhome.com/reels/taman-desa-cheras-kuala-lumpur-yyzsghof
291469,"You City 3, Cheras",1,1,1,780,9360,115.0,FULL,ROOM,Cheras,Selangor,False,3.0739762990345265,101.76273048465791,https://speedhome.com/reels/you-city-3-cheras-dtcdqpjq
291450,"OUG Parklane, Old Klang Road",3,2,1,1500,18000,950.0,PARTIAL,HIGHRISE,Kuala Lumpur,Wilayah Persekutuan,False,3.0669385488,101.6592890024,https://speedhome.com/reels/oug-parklane-old-klang-road-tfdwvtah
291357,"Trinity Aquata, Sungai Besi",3,2,1,2300,27600,839.0,FULL,HIGHRISE,Kuala Lumpur,Wilayah Persekutuan,True,3.0792375407,101.7040336132,https://speedhome.com/reels/trinity-aquata-sungai-besi-benkmhhe
291297,"Bennington Residences, Setapak",3,2,2,2000,24000,1332.0,PARTIAL,HIGHRISE,Kuala Lumpur,Wilayah Persekutuan,False,3.1943769522953405,101.71467926740367,https://speedhome.com/reels/bennington-residences-setapak-ttchdbmn
291288,"The Valley Residencey Skysierra, Setiawangsa",0,1,1,1300,15600,380.0,PARTIAL,HIGHRISE,Kuala Lumpur,Wilayah Persekutuan,False,3.1771300022077056,101.7484491676035,https://speedhome.com/reels/the-valley-residences-skysierra-setiawangsa-sqjvvpfm
291024,"Casa Magna, Kepong",3,2,1,1250,15000,997.0,NONE,HIGHRISE,Kuala Lumpur,Wilayah Persekutuan,False,3.2113783459,101.6429919004,https://speedhome.com/reels/casa-magna-kepong-akjhqske
290401,Windows on the Park Malaysia,3,4,2,3400,40800,2046.0,PARTIAL,HIGHRISE,Cheras,Selangor,True,3.0398545566,101.7527318001,https://speedhome.com/reels/windows-on-the-park-malaysia-kzbkrqwj
290343,Taman Setapak House,2,3,2,2200,26400,1205.0,PARTIAL,LANDED,Kuala Lumpur,Wilayah Persekutuan,False,3.1572869968569424,101.71167450894322,https://speedhome.com/reels/taman-setapak-house-hdnesywm
290336,"De Tropicana, Kuchai Lama",3,2,1,1500,18000,1130.0,PARTIAL,HIGHRISE,Kuala Lumpur,Wilayah Persekutuan,False,3.086576,101.693466,https://speedhome.com/reels/de-tropicana-kuchai-lama-unfgvyoe
290315,residensi riamas,3,2,1,2880,34560,800.0,PARTIAL,HIGHRISE,Kuala Lumpur,Wilayah Persekutuan,False,3.080882493547077,101.66718199549679,https://speedhome.com/reels/residensi-riamas-kxqvgoyh
290227,"Cubic Botanical, Bangsar South",0,1,0,1550,18600,300.0,PARTIAL,HIGHRISE,Kuala Lumpur,Wilayah Persekutuan,True,3.093992114012384,101.6668631092706,https://speedhome.com/reels/cubic-botanical-bangsar-south-njoqssqb
290146,"Opal Apartment, Kuala Lumpur",4,2,1,950,11400,828.0,NONE,HIGHRISE,Kuala Lumpur,Wilayah Persekutuan,False,3.2171267282557277,101.63372142035914,https://speedhome.com/reels/opal-apartment-rknyecmg
290103,Sentul Point Suite Apartment,2,1,1,1800,21600,721.0,FULL,HIGHRISE,Kuala Lumpur,Wilayah Persekutuan,True,3.2027769364945065,101.68874782130715,https://speedhome.com/reels/sentul-point-suite-apartment-vdghugze
289974,"Vista Amani, Cheras",4,2,1,1600,19200,1101.0,FULL,HIGHRISE,Kuala Lumpur,Wilayah Persekutuan,False,3.0956906683180128,101.71534561324522,https://speedhome.com/reels/vista-amani-cheras-ormsvbkl
289907,"The Netizen, Cheras",3,2,2,2800,33600,969.0,FULL,HIGHRISE,Cheras,Selangor,False,3.049755572835467,101.77147695378993,https://speedhome.com/reels/the-netizen-cheras-zagbqqxo
289861,Puchong South Reflextion,6,4,4,4200,50400,3471.0,FULL,LANDED,Puchong,Selangor,True,3.1572869968569424,101.71167450894322,https://speedhome.com/reels/puchong-south-reflextion-xxrprgjr
289812,"The Valley Residences Skysierra, Setiawangsa",2,1,1,2000,24000,800.0,PARTIAL,HIGHRISE,Kuala Lumpur,Wilayah Persekutuan,False,3.1771300022077056,101.7484491676035,https://speedhome.com/reels/the-valley-residences-skysierra-setiawangsa-mcdfdaab
289676,"Sky Awani 3, Kuala Lumpur",3,2,1,2100,25200,800.0,FULL,HIGHRISE,Kuala Lumpur,Wilayah Persekutuan,True,3.1920063,101.7227192,https://speedhome.com/reels/sky-awani-3-kuala-lumpur-lqdumugt
289618,"Sri Putramas, Kuala Lumpur",3,2,1,1800,21600,1050.0,FULL,HIGHRISE,Kuala Lumpur,Wilayah Persekutuan,False,3.180892,101.672501,https://speedhome.com/reels/sri-putramas-kuala-lumpur-gawudekw
289600,"Room 1 - PV Casa Danau, Setapak",1,1,1,1000,12000,,FULL,ROOM,Hulu Langat,Wilayah Persekutuan,False,3.207644969105891,101.72196214297077,https://speedhome.com/reels/room-1-pv-casa-danau-setapak-cpkrsycx
289224,Setapak PV21,1,1,0,700,8400,150.0,PARTIAL,HIGHRISE,Kuala Lumpur,Wilayah Persekutuan,False,3.204314,101.722125,https://speedhome.com/reels/setapak-pv21-ykyuzigj
288740,3 Towers,1,1,0,1600,19200,398.0,FULL,HIGHRISE,Kuala Lumpur,Wilayah Persekutuan,True,3.160772322979278,101.74187548169296,https://speedhome.com/reels/3-towers-ampang-kuala-lumpur-fqudxmgr
288733,"Cubic Botanical, Bangsar South",0,1,1,1800,21600,450.0,FULL,HIGHRISE,Kuala Lumpur,Wilayah Persekutuan,False,3.093992114012384,101.6668631092706,https://speedhome.com/reels/cubic-botanical-bangsar-south-qfpufnat
288603,"Citizen 2, Old Klang Road",3,2,1,2700,32400,883.0,FULL,HIGHRISE,Kuala Lumpur,Wilayah Persekutuan,True,3.082827146073317,101.66235395700211,https://speedhome.com/reels/citizen-2-old-klang-road-egdyjeed
288576,"Tiara Mutiara 2, Kuala Lumpur",1,1,1,1400,16800,280.0,FULL,HIGHRISE,Kuala Lumpur,Wilayah Persekutuan,False,3.0750298441818695,101.65937213831042,https://speedhome.com/reels/tiara-mutiara-2-kuala-lumpur-ryjlckxa
288486,"Astaria Apartment, Ampang",3,2,1,1300,15600,940.0,PARTIAL,HIGHRISE,Ampang,Selangor,False,3.146029068156341,101.77266177066507,https://speedhome.com/reels/astaria-apartment-ampang-wdksnwhs
288471,"United Point Residence, Segambut",1,1,1,600,7200,958.0,FULL,HIGHRISE,Kuala Lumpur,Wilayah Persekutuan,False,3.1918287809,101.6535115242,https://speedhome.com/reels/united-point-residence-segambut-qpkcxymy
288419,"OUG Parklane, Old Klang Road",1,1,0,700,8400,,PARTIAL,ROOM,Kuala Lumpur,Wilayah Persekutuan,True,3.0669385488,101.6592890024,https://speedhome.com/reels/oug-parklane-old-klang-road-yrwhezjc
288011,"V-Residensi Selayang Heights, Batu Caves",3,3,2,1800,21600,1210.0,FULL,HIGHRISE,Batu Caves,Selangor,False,3.2736987788,101.6527926922,https://speedhome.com/reels/vresidensi-selayang-heights-batu-caves-wfnxmbwz
287587,"Platinum Splendor Residensi Semarak, Kuala Lumpur",3,2,1,1800,21600,882.0,NONE,HIGHRISE,Kuala Lumpur,Wilayah Persekutuan,False,3.1817806951,101.72498703,https://speedhome.com/reels/platinum-splendor-residensi-semarak-kuala-lumpur-qdxriptz
287408,"Lestari Perdana, Seri Kembangan",4,2,1,1800,21600,1400.0,PARTIAL,LANDED,Seri Kembangan,Selangor,True,3.012996620545753,101.66914864111745,https://speedhome.com/reels/lestari-perdana-seri-kembangan-dpukmdqj
287319,"Akasa, Cheras",3,2,2,2900,34800,1155.0,PARTIAL,HIGHRISE,Cheras,Selangor,True,3.026089475328867,101.75426991052782,https://speedhome.com/reels/akasa-cheras-htedegsi
286767,"KL Palace Court, Kuchai Lama",2,2,2,1900,22800,987.0,FULL,HIGHRISE,Kuala Lumpur,Wilayah Persekutuan,False,3.0885152577,101.6840457916,https://speedhome.com/reels/kl-palace-court-kuchai-lama-zhbsrvyk
286003,"The Pano, Kuala Lumpur",3,2,2,2850,34200,983.0,FULL,HIGHRISE,Kuala Lumpur,Wilayah Persekutuan,True,3.1855916,101.6815326,https://speedhome.com/reels/the-pano-kuala-lumpur-yfmicyed
285513,"Crown Tower Empire City, Petaling Jaya",1,1,1,1350,16200,466.0,FULL,HIGHRISE,Kuala Lumpur,Wilayah Persekutuan,False,3.167750373652699,101.61474414555113,https://speedhome.com/reels/crown-tower-empire-city-petaling-jaya-pkrguolf
284995,"Residensi KepongMas, Kuala Lumpur",3,2,1,2000,24000,950.0,FULL,HIGHRISE,Kuala Lumpur,Wilayah Persekutuan,True,3.219939016887706,101.64234828211754,https://speedhome.com/reels/residensi-kepongmas-kuala-lumpur-yvopyxcc
284822,"Condominium Akasia, Kuala Lumpur",3,2,2,2100,25200,1200.0,PARTIAL,HIGHRISE,Kuala Lumpur,Wilayah Persekutuan,False,3.0511521632143124,101.66341894550781,https://speedhome.com/reels/condominium-akasia-kuala-lumpur-jrlmnfsf
284538,"The Palm Hillpark, Puncak Alam",4,3,2,1350,16200,1500.0,NONE,LANDED,Bandar Puncak Alam,Selangor,True,3.2161355,101.4629093,https://speedhome.com/reels/the-palm-hillpark-puncak-alam-crlpejdr
284147,"Arte, Mont Kiara",3,3,2,3200,38400,944.0,FULL,HIGHRISE,Kuala Lumpur,Wilayah Persekutuan,False,3.1735972,101.6530728,https://speedhome.com/reels/arte-mont-kiara-xoehfyha
283848,"Serini Melawati, Kuala Lumpur",1,1,2,2000,24000,633.0,FULL,HIGHRISE,Hulu Langat,Wilayah Persekutuan,True,3.209652,101.7518389,https://speedhome.com/reels/serini-melawati-kuala-lumpur-ndpojwda
283496,"Platinum Splendor Residence, Kuala Lumpur",3,2,1,2000,24000,857.0,FULL,HIGHRISE,Kuala Lumpur,Wilayah Persekutuan,False,3.1817806951,101.72498703,https://speedhome.com/reels/platinum-splendor-residence-kuala-lumpur-hnxwckrc
282785,"Taman Serdang Raya, Seri Kembangan",3,3,3,2499,29988,2800.0,NONE,LANDED,Seri Kembangan,Selangor,True,3.0421687218,101.7035079002,https://speedhome.com/reels/taman-serdang-raya-seri-kembangan-oonnhetk
282621,"Habitus, Denai Alam",1,1,2,1400,16800,565.0,PARTIAL,HIGHRISE,Shah Alam,Selangor,True,3.1583704730559834,101.51732403681953,https://speedhome.com/reels/habitus-denai-alam-hyvwfrnz
282463,"Crown Tower Empire City, Petaling Jaya",1,1,0,1720,20640,797.0,FULL,HIGHRISE,Petaling Jaya,Selangor,True,3.1683152498,101.6154402494,https://speedhome.com/reels/crown-tower-empire-city-petaling-jaya-lalnbzzs
281382,"Liberty Arc, Ampang Jaya",0,1,1,1600,19200,450.0,PARTIAL,HIGHRISE,Ampang,Selangor,False,3.1727609015,101.7565083504,https://speedhome.com/reels/liberty-arc-ampang-jaya-onugojtd
280559,"Residensi Suria Pantai, Kuala Lumpur",3,2,1,1600,19200,810.0,PARTIAL,HIGHRISE,Kuala Lumpur,Wilayah Persekutuan,False,3.0925639,101.6662349,https://speedhome.com/reels/residensi-suria-pantai-kuala-lumpur-ccqwizgt
279870,"Riveria City Brickfields, Kuala Lumpur",1,1,1,1700,20400,250.0,PARTIAL,HIGHRISE,Kuala Lumpur,Wilayah Persekutuan,False,3.130393853409356,101.68970816929377,https://speedhome.com/reels/riveria-city-brickfields-kuala-lumpur-zczmeybk
279563,"M Centura, Sentul",2,1,1,2000,24000,646.0,FULL,HIGHRISE,Kuala Lumpur,Wilayah Persekutuan,False,3.2034807533,101.6904997818,https://speedhome.com/reels/m-centura-sentul-crsxgnch
279454,"Central Residence, Sungai Besi",3,2,2,2200,26400,1200.0,FULL,HIGHRISE,Kuala Lumpur,Wilayah Persekutuan,False,3.0828693587,101.6991385818,https://speedhome.com/reels/central-residence-sungai-besi-oochoalt
279387,"Solaris Dutamas, Dutamas",1,2,0,2800,33600,1020.0,FULL,HIGHRISE,Kuala Lumpur,Wilayah Persekutuan,False,3.17124,101.66585,https://speedhome.com/reels/solaris-dutamas-dutamas-ejeqxuve
279336,"Crown Tower Empire City, Petaling Jaya.",0,1,0,1450,17400,446.0,FULL,HIGHRISE,Kuala Lumpur,Wilayah Persekutuan,False,3.167750373652699,101.61474414555113,https://speedhome.com/reels/empire-city-petaling-jaya-nvzlkdya
279288,"Lavender Residences, Kajang",3,2,2,2300,27600,1080.0,PARTIAL,HIGHRISE,Cheras,Selangor,False,3.0432400929,101.8070840836,https://speedhome.com/reels/lavender-residences-kajang-asxjfpnu
278138,"Sfera Residency, Seri Kembangan",3,2,2,2700,32400,996.0,FULL,HIGHRISE,Seri Kembangan,Selangor,True,2.982561,101.663318,https://speedhome.com/reels/sfera-residency-seri-kembangan-tatpfahu
277964,"Henna Residences, Wangsa Maju",2,2,2,2500,30000,850.0,FULL,HIGHRISE,Kuala Lumpur,Wilayah Persekutuan,True,3.1915876568322323,101.73804882032769,https://speedhome.com/reels/henna-residences-wangsa-maju-vyxzowai
277912,"Serdang Skyvillas, Seri Kembangan",3,2,2,1000,12000,900.0,PARTIAL,HIGHRISE,Seri Kembangan,Selangor,True,3.0409743888794982,101.70657749435829,https://speedhome.com/reels/serdang-skyvillas-seri-kembangan-iyxmdwnd
277640,"myHabitat, KLCC, Kuala Lumpur",3,2,1,5000,60000,1450.0,PARTIAL,HIGHRISE,Kuala Lumpur,Wilayah Persekutuan,False,3.162606,101.72017,https://speedhome.com/reels/myhabitat-klcc-kuala-lumpur-osloghjc
277485,"Sfera Residency, Seri Kembangan",3,2,2,2600,31200,996.0,FULL,HIGHRISE,Seri Kembangan,Selangor,True,2.9829995333118915,101.66319999789803,https://speedhome.com/reels/sfera-residency-seri-kembangan-kicgzvzh
276997,"Riveria City Brickfields, Kuala Lumpur",0,1,0,2000,24000,250.0,FULL,HIGHRISE,Kuala Lumpur,Wilayah Persekutuan,True,3.130660635959667,101.68980658836264,https://speedhome.com/reels/riveria-city-brickfields-kuala-lumpur-psavaykb
276885,"Arte Mont Kiara, Dutamas",1,2,2,2600,31200,900.0,FULL,HIGHRISE,Kuala Lumpur,Wilayah Persekutuan,True,3.1735972,101.6530728,https://speedhome.com/reels/arte-mont-kiara-dutamas-ysfykhhy
276638,"Sunway Avila, Wangsa Maju",3,2,2,2800,33600,903.0,FULL,HIGHRISE,Kuala Lumpur,Wilayah Persekutuan,False,3.193758701051812,101.73786001534211,https://speedhome.com/reels/sunway-avila-wangsa-maju-crhhelji
276285,"Bangsar Trade Center, Kerinchi LRT, KL",2,1,0,2700,32400,700.0,FULL,HIGHRISE,Kuala Lumpur,Wilayah Persekutuan,False,3.1155444483,101.668035686,https://speedhome.com/reels/bangsar-trade-center-pantai-lepwjlwh
274877,"Nidoz Residences, Desa Petaling",1,1,0,1000,12000,,FULL,ROOM,Kuala Lumpur,Wilayah Persekutuan,False,3.0858155146,101.6997313499,https://speedhome.com/reels/nidoz-residences-desa-petaling-qeapmcwu
274736,"Platinum OUG, Bukit Jalil",3,2,1,1750,21000,850.0,PARTIAL,HIGHRISE,Kuala Lumpur,Wilayah Persekutuan,False,3.0648705605151134,101.66034176931477,https://speedhome.com/reels/residensi-platinum-oug-bukit-jalil-cpxhpgwb
274310,"Casa Idaman, Jalan Ipoh",3,2,2,1600,19200,1007.0,PARTIAL,HIGHRISE,Kuala Lumpur,Wilayah Persekutuan,False,3.2038799267,101.6806286573,https://speedhome.com/reels/casa-idaman-jalan-ipoh-mkgoxtig
274168,Sentul Point Suites Apartment,3,2,1,1700,20400,1002.0,FULL,HIGHRISE,Kuala Lumpur,Wilayah Persekutuan,False,3.2000664,101.6896784,https://speedhome.com/reels/sentul-point-suites-apartment-blpubzot
273983,"Shamelin Star Serviced Residences, Cheras",3,2,2,2100,25200,914.0,PARTIAL,HIGHRISE,Kuala Lumpur,Wilayah Persekutuan,False,3.1260538276,101.7362952232,https://speedhome.com/reels/shamelin-star-serviced-residences-cheras-dlznewws
273903,"Brickfields Residence, KL",2,2,1,2375,28500,700.0,FULL,HIGHRISE,Kuala Lumpur,Wilayah Persekutuan,False,3.1251074646488237,101.68098624337196,https://speedhome.com/reels/brickfields-residence-kl-zojmsvqe
273554,"Aster Residence, Cheras Hartamas",2,2,1,3400,40800,650.0,PARTIAL,HIGHRISE,Kuala Lumpur,Wilayah Persekutuan,False,3.0806936035425947,101.74564106726822,https://speedhome.com/reels/aster-residence-cheras-hartamas-tzyvaoli
272557,"Majestic Maxim, Kuala Lumpur",2,2,1,1250,15000,700.0,NONE,HIGHRISE,Kuala Lumpur,Wilayah Persekutuan,False,3.076653,101.742053,https://speedhome.com/reels/majestic-maxim-kuala-lumpur-zzfmjhui
272306,Pandan Mas Townhouse,3,2,1,2000,24000,1000.0,FULL,LANDED,Kuala Lumpur,Wilayah Persekutuan,False,3.1332366266365397,101.74541247885132,https://speedhome.com/reels/pandan-mas-townhouse-xnsvqycw
272146,"Liberty Arc @ Ampang Ukay, Ukay",1,1,1,1550,18600,450.0,FULL,HIGHRISE,Ampang,Selangor,False,3.1727609015,101.7565083504,https://speedhome.com/reels/liberty-arc-ampang-ukay-ukay-mqbanxbk
271734,"Regalia @ Jalan Sultan Ismail, Kuala Lumpur",1,1,0,2000,24000,500.0,FULL,HIGHRISE,Kuala Lumpur,Wilayah Persekutuan,True,3.164429,101.692577,https://speedhome.com/reels/regalia-jalan-sultan-ismail-kuala-lumpur-qtxufhla
271725,3 Elements Seri Kembangan,1,1,1,1400,16800,531.0,FULL,HIGHRISE,Seri Kembangan,Selangor,False,2.9832216916126395,101.66736260683635,https://speedhome.com/reels/3-elements-seri-kembangan-mrhwbycv
271627,"The Valley Residences Skysierra, Setiawangsa",0,1,1,1300,15600,350.0,FULL,HIGHRISE,Kuala Lumpur,Wilayah Persekutuan,False,3.1771300022077056,101.7484491676035,https://speedhome.com/reels/the-valley-residences-skysierra-setiawangsa-saiqkzrb
271567,"Taman Pusat Kepong, Kuala Lumpur",3,2,0,2600,31200,950.0,FULL,HIGHRISE,Kuala Lumpur,Wilayah Persekutuan,True,3.2017748,101.6563141,https://speedhome.com/reels/taman-pusat-kepong-kuala-lumpur-miqykxgs
271534,"28 Boulevard, Pandan Perdana",2,1,1,1900,22800,450.0,FULL,HIGHRISE,Kuala Lumpur,Wilayah Persekutuan,False,3.1178048843,101.7421102524,https://speedhome.com/reels/28-boulevard-pandan-perdana-pdiftemv
271122,"CitiZen 2, Old Klang Road",1,1,0,758,9096,,FULL,ROOM,Kuala Lumpur,Wilayah Persekutuan,False,3.0828157921,101.6624808311,https://speedhome.com/reels/citizen-2-old-klang-road-vezmphvm
270989,The Hipster,1,1,1,1200,14400,,FULL,ROOM,Kuala Lumpur,Wilayah Persekutuan,False,3.097977,101.690974,https://speedhome.com/reels/the-hipster-izofyzit
270696,"Citizen 2, Old Klang Road",3,2,0,2400,28800,823.0,FULL,HIGHRISE,Kuala Lumpur,Wilayah Persekutuan,False,3.0828157921,101.6624808311,https://speedhome.com/reels/citizen-2-old-klang-road-aebexcrq
270320,"Saujana Ria Aparment, Wangsa Permai",3,2,1,850,10200,657.0,NONE,HIGHRISE,Kuala Lumpur,Wilayah Persekutuan,True,3.2107463279688013,101.60986661218767,https://speedhome.com/reels/saujana-ria-aparment-wangsa-permai-degvyerr
270229,"Tiara Mutiara, Old Klang Road",2,2,1,1800,21600,751.0,PARTIAL,HIGHRISE,Kuala Lumpur,Wilayah Persekutuan,False,3.0749575504,101.6590878367,https://speedhome.com/reels/tiara-mutiara-old-klang-road-vqhtasae
270063,VIVO Residence @ 9 Seputeh,2,2,1,2400,28800,804.0,FULL,HIGHRISE,Kuala Lumpur,Wilayah Persekutuan,False,3.1052666002179508,101.6771102765173,https://speedhome.com/reels/vivo-residence-9-seputeh-bktdzmki
269827,Flat Taman Bakti,2,1,0,780,9360,800.0,NONE,HIGHRISE,Ampang,Selangor,False,3.1359512724716723,101.74563208372528,https://speedhome.com/reels/flat-taman-bakti-ysdzvdtg
269619,"One Cochrane Residences, Kuala Lumpur",2,2,2,3500,42000,980.0,FULL,HIGHRISE,Kuala Lumpur,Wilayah Persekutuan,False,3.133509272056827,101.7208633,https://speedhome.com/reels/one-cochrane-residences-kuala-lumpur-teopaeyz
269619,"One Cochrane Residences, Kuala Lumpur",2,2,2,3500,42000,980.0,FULL,HIGHRISE,Kuala Lumpur,Wilayah Persekutuan,False,3.133509272056827,101.7208633,https://speedhome.com/reels/one-cochrane-residences-kuala-lumpur-teopaeyz
269616,"Sri Putramas I, Dutamas",3,2,1,2000,24000,1100.0,FULL,HIGHRISE,Kuala Lumpur,Wilayah Persekutuan,False,3.18105,101.673,https://speedhome.com/reels/sri-putramas-i-dutamas-jtpmdzcb
269532,"Residensi Laman Sari, Batu Caves",3,2,1,1700,20400,900.0,FULL,HIGHRISE,Batu Caves,Selangor,False,3.230281488782345,101.66662624656281,https://speedhome.com/reels/residensi-laman-sari-batu-caves-tyxlqpew
269135,Residensi Wangsamas,3,2,2,1800,21600,810.0,PARTIAL,HIGHRISE,Kuala Lumpur,Wilayah Persekutuan,False,3.198068614078444,101.73881999999998,https://speedhome.com/reels/residensi-wangsamas-ywwfjmgn
269134,"3rdNvenue, Neu Suite",2,1,1,1900,22800,450.0,FULL,HIGHRISE,Kuala Lumpur,Wilayah Persekutuan,False,3.16321545283493,101.73697385138297,https://speedhome.com/reels/3rdnvenue-neu-suite-znyhqtha
269049,Penthouse unit Bukit Pandan 1 Condominium B,6,3,2,1980,23760,2100.0,PARTIAL,HIGHRISE,Kuala Lumpur,Wilayah Persekutuan,True,3.1147302616,101.7378616333,https://speedhome.com/reels/penthouse-unit-bukit-pandan-1-condominium-b-hrcepxxk
268730,The Era Duta North,3,2,2,2900,34800,1023.0,FULL,HIGHRISE,Kuala Lumpur,Wilayah Persekutuan,False,3.1830118851224687,101.67432273164533,https://speedhome.com/reels/the-era-duta-north-hslorldz
268571,"Residensi Laman Sari, Batu Caves",3,2,1,1500,18000,900.0,NONE,HIGHRISE,Batu Caves,Selangor,False,3.230281488782345,101.66662624656281,https://speedhome.com/reels/residensi-laman-sari-batu-caves-ftvkzxyw
268388,"Citizen 2, Old Klang Road",2,2,1,1950,23400,750.0,PARTIAL,HIGHRISE,Kuala Lumpur,Wilayah Persekutuan,True,3.082827146073317,101.66235395700211,https://speedhome.com/reels/citizen-2-old-klang-road-vbiyndul
268193,"Emerald 9, Cheras",3,2,0,2400,28800,853.0,FULL,HIGHRISE,Cheras,Selangor,False,3.0752121301411717,101.76219047670922,https://speedhome.com/reels/emerald-9-cheras-gpddrbmp
267918,"Symphony Tower, Seri Kembangan",3,2,2,2300,27600,1144.0,FULL,HIGHRISE,Cheras,Selangor,False,3.0274158335,101.7545932531,https://speedhome.com/reels/symphony-tower-seri-kembangan-ypgcxyft
267402,"3rdNvenue, Neu Suite",2,1,1,2200,26400,430.0,FULL,HIGHRISE,Kuala Lumpur,Wilayah Persekutuan,True,3.1629690687384064,101.73701677117674,https://speedhome.com/reels/3rdnvenue-neu-suite-jzhhnloe
267335,"Kepong Sentral Condominium, Sungai Buloh",3,2,1,1300,15600,962.0,PARTIAL,HIGHRISE,Kuala Lumpur,Wilayah Persekutuan,False,3.2098536941,101.6280904687,https://speedhome.com/reels/kepong-sentral-condominium-sungai-buloh-vjutfxsw
267322,"Green Terrain, Cheras South",1,1,0,600,7200,100.0,PARTIAL,ROOM,Cheras,Selangor,False,3.0727023797,101.7580962181,https://speedhome.com/reels/green-terrain-cheras-south-rzkwmmgo
267287,Uoa South bank Resident,3,2,1,2100,25200,953.0,PARTIAL,HIGHRISE,Kuala Lumpur,Wilayah Persekutuan,True,3.1070135350798718,101.67815197259188,https://speedhome.com/reels/uoa-south-bank-resident-sodctupw
267276,"Cubic Botanical, Pantai Dalam",3,2,1,2850,34200,870.0,FULL,HIGHRISE,Kuala Lumpur,Wilayah Persekutuan,False,3.093992114012384,101.6668631092706,https://speedhome.com/reels/cubic-botanical-pantai-dalam-rhvtyuwv
266022,"Angkasa Condominiums, Cheras",3,2,1,1800,21600,920.0,FULL,HIGHRISE,Kuala Lumpur,Wilayah Persekutuan,False,3.079280394,101.7302387953,https://speedhome.com/reels/angkasa-condominiums-cheras-yagaodhr
266010,"Kiara Kasih Condominium, Mont Kiara",3,2,1,2000,24000,850.0,FULL,HIGHRISE,Kuala Lumpur,Wilayah Persekutuan,False,3.1748372912176657,101.64793085396663,https://speedhome.com/reels/kiara-kasih-condominium-mont-kiara-eothvqia
265908,"1 Petaling Residence & Commerz, Kuala Lumpur",3,2,1,2200,26400,950.0,FULL,HIGHRISE,Kuala Lumpur,Wilayah Persekutuan,False,3.068052,101.705529,https://speedhome.com/reels/1-petaling-residence-commerz-kuala-lumpur-iirhjwml
265860,"Empire City, Damansara Perdana",0,1,0,1250,15000,580.0,PARTIAL,HIGHRISE,Petaling Jaya,Selangor,False,3.1683152498,101.6154402494,https://speedhome.com/reels/empire-city-damansara-perdana-ykxfojnb
265744,"Residensi Seri Wahyu, Jalan Ipoh",3,2,1,1450,17400,800.0,PARTIAL,HIGHRISE,Batu Caves,Selangor,False,3.2100179225,101.6691112518,https://speedhome.com/reels/residensi-seri-wahyu-jalan-ipoh-ymtomsir
265738,"The Holmes 2, Bandar Tun Razak",3,2,2,2600,31200,943.0,FULL,HIGHRISE,Kuala Lumpur,Wilayah Persekutuan,False,3.0887295227,101.7206740379,https://speedhome.com/reels/the-holmes-2-bandar-tun-razak-igvuynhs
265089,"Cubic Botanical by ANCUBIC, Kuala Lumpur",2,1,1,2500,30000,581.0,FULL,HIGHRISE,,,True,3.093992114012384,101.6668631092706,https://speedhome.com/reels/cubic-botanical-by-ancubic-kuala-lumpur-uwxceinr
263981,"One Cochrane Residences, Kuala Lumpur",2,2,2,3800,45600,947.0,FULL,HIGHRISE,Kuala Lumpur,Wilayah Persekutuan,False,3.133509272056827,101.7208633,https://speedhome.com/reels/one-cochrane-residences-kuala-lumpur-wqkyqexr
263915,Chymes Gurney Residence KL,1,1,1,1700,20400,1122.0,PARTIAL,ROOM,Kuala Lumpur,Wilayah Persekutuan,False,3.1696228,101.7260193,https://speedhome.com/reels/chymes-gurney-residence-kl-bgudzhnl
263636,Chymes Gurney Residence KL,1,1,1,1500,18000,1122.0,PARTIAL,ROOM,Kuala Lumpur,Wilayah Persekutuan,False,3.1696228,101.7260193,https://speedhome.com/reels/chymes-gurney-residence-kl-ycujmkhm
263475,"Seasons Garden Residences, Kuala Lumpur",3,2,1,1900,22800,770.0,PARTIAL,HIGHRISE,Kuala Lumpur,Wilayah Persekutuan,False,3.1879938088,101.7340421677,https://speedhome.com/reels/seasons-garden-residences-kuala-lumpur-frfppwec
262512,"Residensi Seri Wahyu, Jalan Ipoh",3,2,1,1400,16800,805.0,PARTIAL,HIGHRISE,Batu Caves,Selangor,False,3.2100179225,101.6691112518,https://speedhome.com/reels/residensi-seri-wahyu-jalan-ipoh-rfoakbxn
262303,"Taman Muda, Ampang",3,2,2,1600,19200,1200.0,PARTIAL,LANDED,Kuala Lumpur,Wilayah Persekutuan,False,3.1181897961011935,101.7589626257682,https://speedhome.com/reels/taman-muda-ampang-nvcxnpsp
262296,"Kiara Kasih Condominium, Kuala Lumpur",3,2,1,1700,20400,850.0,PARTIAL,HIGHRISE,Kuala Lumpur,Wilayah Persekutuan,True,3.1748372912176657,101.64793085396663,https://speedhome.com/reels/kiara-kasih-condominium-kuala-lumpur-zpcmbhjc
262267,"Fawina Court, Ampang",2,2,1,1500,18000,850.0,PARTIAL,HIGHRISE,Ampang,Selangor,False,3.1519465171,101.749497056,https://speedhome.com/reels/fawina-court-ampang-pvlynifj
261802,"Neu Suites, Kuala Lumpur",1,1,0,900,10800,130.0,PARTIAL,ROOM,Kuala Lumpur,Wilayah Persekutuan,False,3.1624802903479177,101.73706364844472,https://speedhome.com/reels/neu-suites-kuala-lumpur-iemozoyh
261467,"Kiara Kasih Condominium, Mont Kiara",3,2,0,2000,24000,850.0,FULL,HIGHRISE,Kuala Lumpur,Wilayah Persekutuan,False,3.1748372912176657,101.64793085396663,https://speedhome.com/reels/kiara-kasih-condominium-mont-kiara-otqrpxxx
260820,"Razak City Residences, Sungai Besi",3,3,1,1800,21600,1062.0,PARTIAL,HIGHRISE,Kuala Lumpur,Wilayah Persekutuan,False,3.1081417276477326,101.70479600049664,https://speedhome.com/reels/razak-city-residences-sungai-besi-grxqihsj
260793,"Cubic Botanical, Pantai Dalam",2,1,1,2000,24000,518.0,FULL,HIGHRISE,Kuala Lumpur,Wilayah Persekutuan,False,3.093437932029478,101.666867,https://speedhome.com/reels/cubic-botanical-pantai-dalam-xfboouza
260572,"PV21 Condominium, Wangsa Maju",3,2,1,3000,36000,1325.0,FULL,HIGHRISE,Kuala Lumpur,Wilayah Persekutuan,True,3.1994916883999953,101.71945688353883,https://speedhome.com/reels/pv21-condominium-wangsa-maju-bnxdzojg
260490,Vistana Residence,4,2,1,2500,30000,1200.0,PARTIAL,HIGHRISE,Kuala Lumpur,Wilayah Persekutuan,False,3.171395077301309,101.69804695767128,https://speedhome.com/reels/vistana-residence-kaijmnyn
260429,"Setapak Green Condominium, Kuala Lumpur",3,3,1,2300,27600,1362.0,FULL,HIGHRISE,Kuala Lumpur,Wilayah Persekutuan,False,3.1960799396793687,101.70677231534262,https://speedhome.com/reels/setapak-green-condominium-kuala-lumpur-lfuhvcon
260393,Rafflesia Condo Sentul,1,1,0,850,10200,,FULL,ROOM,Kuala Lumpur,Wilayah Persekutuan,True,3.182836,101.69731,https://speedhome.com/reels/rafflesia-condo-sentul-vmlgpxya
260186,"Neu Suites, Kuala Lumpur",1,1,0,1000,12000,150.0,FULL,HIGHRISE,Kuala Lumpur,Wilayah Persekutuan,True,3.1624802903479177,101.73706364844472,https://speedhome.com/reels/neu-suites-kuala-lumpur-kjhkxizt
259971,"Arte Mont Kiara, Dutamas",2,2,2,2650,31800,886.0,FULL,HIGHRISE,Kuala Lumpur,Wilayah Persekutuan,False,3.1735972,101.6530728,https://speedhome.com/reels/arte-mont-kiara-dutamas-wkyaakre
259504,"The Valley, Setiawangsa AU2",2,1,1,2300,27600,810.0,PARTIAL,HIGHRISE,Kuala Lumpur,Wilayah Persekutuan,False,3.1771300022077056,101.7484491676035,https://speedhome.com/reels/the-valley-setiawangsa-au2-toyswetu
259389,"Vista Impiana Apartment, Seri Kembangan",3,2,1,1300,15600,1200.0,PARTIAL,HIGHRISE,Seri Kembangan,Selangor,True,3.039297442,101.6903972626,https://speedhome.com/reels/vista-impiana-apartment-seri-kembangan-aaxmuewk
258761,"Residensi Pandanmas 2, Pandan Indah",3,2,1,1800,21600,900.0,PARTIAL,HIGHRISE,Kuala Lumpur,Wilayah Persekutuan,False,3.1412192,101.7375896,https://speedhome.com/reels/residensi-pandanmas-2-pandan-indah-wjxfmsyp
258758,"Cubic Botanical, Bangsar South, Midvalley, KL Eco City, Kuala Lumpur",1,1,0,1600,19200,300.0,FULL,HIGHRISE,Kuala Lumpur,Wilayah Persekutuan,False,3.093437932029478,101.666867,https://speedhome.com/reels/cubic-botanical-bangsar-south-gvczakur
258446,"Cubic Botanical, Bangsar South, Midvalley, Kuala Lumpur",2,1,1,2300,27600,580.0,FULL,HIGHRISE,Kuala Lumpur,Wilayah Persekutuan,True,3.0935004333865117,101.66669465812747,https://speedhome.com/reels/cubic-botanical-bangsar-south-midvalley-kuala-lumpur-vkvjwrnr
258371,"Putri Indah Condominium, Johor Bahru",1,1,1,700,8400,,FULL,ROOM,Johor Bahru,Johor,False,3.1572869968569424,101.71167450894322,https://speedhome.com/reels/putri-indah-condominium-johor-bahru-mzjqfxqq
258085,"FLASH DEAL - Chambers Residence, Chow Kit, Sunway Putra Mall, PWTC, 15 mins to TRX",0,1,0,2200,26400,460.0,FULL,HIGHRISE,,,False,3.139,101.6869,https://speedhome.com/reels/flash-deal-chambers-residence-chow-kit-sunway-putra-mall-pwtc-15-mins-to-trx-uwrgefju
257467,"3rdNvenue, Neu Suite",2,1,0,1850,22200,450.0,PARTIAL,HIGHRISE,Kuala Lumpur,Wilayah Persekutuan,True,3.16321545283493,101.73697385138297,https://speedhome.com/reels/3rdnvenue-neu-suite-dfpzhzev
257143,"Neu Suite, Jalan Ampang",3,2,0,3200,38400,601.0,FULL,HIGHRISE,Kuala Lumpur,Wilayah Persekutuan,False,3.1624802903479177,101.73706364844472,https://speedhome.com/reels/neu-suite-jalan-ampang-edgitfbr
257019,"Flat Seksyen 2, Wangsa Maju",1,1,1,350,4200,667.0,NONE,ROOM,Kuala Lumpur,Wilayah Persekutuan,True,3.209803708121278,101.73576986931364,https://speedhome.com/reels/flat-seksyen-2-wangsa-maju-rzoriwqi
256823,"Fortune Park, Seri Kembangan",3,2,1,3489,41868,970.0,FULL,HIGHRISE,Seri Kembangan,Selangor,True,3.0366619,101.7068768,https://speedhome.com/reels/fortune-park-seri-kembangan-hbsiqbma
256799,"Mutiara Residence Serdang, Seri Kembangan",1,1,1,899,10788,,FULL,ROOM,Seri Kembangan,Selangor,False,3.0179143,101.7076251,https://speedhome.com/reels/mutiara-residence-serdang-seri-kembangan-ozlowxtz
256390,"The ERA, Segambut",2,2,2,2300,27600,872.0,FULL,HIGHRISE,Kuala Lumpur,Wilayah Persekutuan,False,3.1819735165,101.6753232479,https://speedhome.com/reels/the-era-segambut-yczquxgl
254901,"Empire City, Petaling Jaya",1,1,0,1300,15600,448.0,PARTIAL,HIGHRISE,Kuala Lumpur,Wilayah Persekutuan,True,3.1683152498,101.6154402494,https://speedhome.com/reels/empire-city-petaling-jaya-vjkhjnvi
254680,"The Ridge, KL East",2,2,2,3000,36000,865.0,FULL,HIGHRISE,Hulu Langat,Wilayah Persekutuan,False,3.225458,101.730612,https://speedhome.com/reels/the-ridge-kl-east-hmqxxqao
254364,"United Point Residence, Segambut",0,2,2,2100,25200,900.0,NONE,HIGHRISE,Kuala Lumpur,Wilayah Persekutuan,False,3.1911428774028434,101.65336076471978,https://speedhome.com/reels/united-point-residence-ouagjdnj
253539,"Desa Green Serviced Apartment, Taman Desa",1,1,0,1900,22800,578.0,FULL,HIGHRISE,Kuala Lumpur,Wilayah Persekutuan,False,3.1053276,101.6947764,https://speedhome.com/reels/desa-green-serviced-apartment-taman-desa-aojqevok
252718,"Desa Tasik Apartment, Sungai Besi",4,1,0,1200,14400,730.0,NONE,HIGHRISE,Kuala Lumpur,Wilayah Persekutuan,False,3.0681170298,101.7132496834,https://speedhome.com/reels/desa-tasik-apartment-sungai-besi-cblzfkcg
252521,"B11 Parkland Residence, Cheras South",1,1,0,500,6000,,PARTIAL,ROOM,Cheras,Selangor,False,3.0418568,101.7723305,https://speedhome.com/reels/b11-parkland-residence-cheras-south-sqwlvctd
252337,"Trion, Kuala Lumpur",2,1,1,2500,30000,690.0,FULL,HIGHRISE,Kuala Lumpur,Wilayah Persekutuan,False,3.1242817850654494,101.71023502698604,https://speedhome.com/reels/trion-kuala-lumpur-assvqcir
252095,"Pangsapuri Angsa, Segambut",2,1,1,1400,16800,679.0,FULL,HIGHRISE,Kuala Lumpur,Wilayah Persekutuan,False,3.1876129843004453,101.65435483299174,https://speedhome.com/reels/pangsapuri-angsa-segambut-wrrsomwf
251834,Sentul Point Serviced Residence,3,2,2,1850,22200,1001.0,PARTIAL,HIGHRISE,Kuala Lumpur,Wilayah Persekutuan,False,3.2020642,101.6894105,https://speedhome.com/reels/sentul-point-serviced-residence-cjjgjqbp
251582,"Penaga Taman Raintree, Batu Caves",3,2,1,1550,18600,1098.0,PARTIAL,HIGHRISE,Batu Caves,Selangor,False,3.2442787161534974,101.68101685476923,https://speedhome.com/reels/penaga-taman-raintree-batu-caves-kmhknicf
251398,"Residensi Jubilee, Jalan Jubilee Kuala Lumpur",3,2,2,2100,25200,1038.0,PARTIAL,HIGHRISE,Kuala Lumpur,Wilayah Persekutuan,False,3.1309118,101.709275,https://speedhome.com/reels/residensi-jubilee-jalan-jubilee-kuala-lumpur-hrafzrud
250601,"Kenwingston Platz, Kuala Lumpur",2,2,1,2000,24000,650.0,FULL,HIGHRISE,Kuala Lumpur,Wilayah Persekutuan,False,3.201706103422562,101.70337376928158,https://speedhome.com/reels/kenwingston-platz-kuala-lumpur-tzlmuevp
250450,"M City, Jalan Ampang",0,1,1,1700,20400,560.0,FULL,HIGHRISE,Kuala Lumpur,Wilayah Persekutuan,False,3.159041,101.747901,https://speedhome.com/reels/m-city-jalan-ampang-yttnvnux
249737,"One Maxim, Sentul",2,2,1,2300,27600,650.0,FULL,HIGHRISE,Kuala Lumpur,Wilayah Persekutuan,False,3.20575,101.68947,https://speedhome.com/reels/one-maxim-sentul-jypisovq
248527,"Trader's Garden, Cheras",3,2,1,2300,27600,859.0,FULL,HIGHRISE,Cheras,Selangor,False,3.035789247354809,101.76325549326629,https://speedhome.com/reels/traders-garden-cheras-acjwjtlh
248058,"Le Chateau 1 Seputeh, Kuala Lumpur",3,1,1,1600,19200,1205.0,PARTIAL,HIGHRISE,Masai,Johor,True,3.1213508665,101.6918832064,https://speedhome.com/reels/le-chateau-1-seputeh-kuala-lumpur-sakxrwbe
247792,"KL Traders Square Residences, Gombak",3,2,2,2000,24000,918.0,PARTIAL,HIGHRISE,Kuala Lumpur,Wilayah Persekutuan,False,3.2041535774977294,101.70268163439333,https://speedhome.com/reels/kl-traders-square-residences-gombak-notxwmnu
247709,"Senada Residences KLGCC Resort, Bukit Kiara",2,2,2,4250,51000,958.0,FULL,HIGHRISE,Kuala Lumpur,Wilayah Persekutuan,False,3.138083666576094,101.64924661013033,https://speedhome.com/reels/senada-residences-klgcc-resort-bukit-kiara-hmdsvpab
246983,"D'Sara Sentral Condo, Sg Buloh",2,1,1,2000,24000,809.0,FULL,HIGHRISE,Shah Alam,Selangor,False,3.1993708,101.5776513,https://speedhome.com/reels/dsara-sentral-condo-sg-buloh-gpiwrxtr
246569,"Menara Penaga, Batu Caves",3,2,1,1450,17400,926.0,PARTIAL,HIGHRISE,Batu Caves,Selangor,False,3.2462359136981713,101.68325196931478,https://speedhome.com/reels/menara-penaga-batu-caves-ibvnppze
246250,"Arte Plus Jalan Ampang, Kuala Lumpur",1,1,1,1150,13800,432.0,PARTIAL,HIGHRISE,Kuala Lumpur,Wilayah Persekutuan,False,3.1627397748702655,101.74748536931479,https://speedhome.com/reels/arte-plus-jalan-ampang-kuala-lumpur-dbpfwpqu
245824,"OUG Parklane Service Residence, Puchong",3,2,1,1700,20400,950.0,FULL,HIGHRISE,Kuala Lumpur,Wilayah Persekutuan,False,3.068481,101.657398,https://speedhome.com/reels/oug-parklane-service-residence-puchong-dpwmcxzu
245728,"Dex Kiara East, Jalan Ipoh",3,2,2,1900,22800,911.0,PARTIAL,HIGHRISE,Kuala Lumpur,Wilayah Persekutuan,False,3.2094930343,101.6740787029,https://speedhome.com/reels/dex-kiara-east-jalan-ipoh-lcpehfri
245601,"Central Residence, Sungai Besi",4,2,2,2500,30000,1089.0,FULL,HIGHRISE,Kuala Lumpur,Wilayah Persekutuan,True,3.0828693587,101.6991385818,https://speedhome.com/reels/central-residence-sungai-besi-dtvczsmn
245500,MCentura Sentul,4,2,2,2000,24000,1000.0,PARTIAL,HIGHRISE,Kuala Lumpur,Wilayah Persekutuan,False,3.2037506553961763,101.68985605082757,https://speedhome.com/reels/mcentura-sentul-bvfocqqi
245452,"Seasons Garden Residences, Wangsa Maju",1,1,1,800,9600,,FULL,ROOM,Kuala Lumpur,Wilayah Persekutuan,False,3.1878827,101.7340205,https://speedhome.com/reels/seasons-garden-residences-wangsa-maju-dxnkthdt
245359,"Arte Mont Kiara, Dutamas",1,2,1,1800,21600,494.0,FULL,HIGHRISE,Kuala Lumpur,Wilayah Persekutuan,True,3.1761774,101.6655848,https://speedhome.com/reels/arte-mont-kiara-dutamas-jmfkbdwb
245278,"Serini, Melawati",1,1,1,2000,24000,633.0,FULL,HIGHRISE,Hulu Langat,Wilayah Persekutuan,False,3.2131636735118216,101.74670326769233,https://speedhome.com/reels/serini-melawati-ggvfsuzb
245246,"The Holmes 2, Bandar Tun Razak",1,1,0,950,11400,,FULL,ROOM,Kuala Lumpur,Wilayah Persekutuan,False,3.0887295227,101.7206740379,https://speedhome.com/reels/the-holmes-2-bandar-tun-razak-lgjzxvcp
244747,"Bangsar Puteri Condominium, Bangsar",2,1,1,2500,30000,1100.0,FULL,HIGHRISE,Kuala Lumpur,Wilayah Persekutuan,False,3.14222,101.662,https://speedhome.com/reels/bangsar-puteri-condominium-bangsar-smshokvt
244665,"Univ 360 Place, Seri Kembangan",0,1,1,1250,15000,500.0,FULL,HIGHRISE,Seri Kembangan,Selangor,False,3.0215124791,101.7142152786,https://speedhome.com/reels/univ-360-place-seri-kembangan-biftenaw
244626,"Symphony Tower, Selangor",3,2,2,1900,22800,951.0,PARTIAL,HIGHRISE,Seri Kembangan,Selangor,False,3.0274158335,101.7545932531,https://speedhome.com/reels/symphony-tower-selangor-bopbnhgz
244029,"Trinity Aquata Condominium, Sg Besi",3,2,2,3250,39000,1420.0,FULL,HIGHRISE,Kuala Lumpur,Wilayah Persekutuan,False,3.0792283,101.704393,https://speedhome.com/reels/trinity-aquata-condominium-sg-besi-abngokuj
243997,"Univ 360 Place, Seri Kembangan",3,2,2,3000,36000,979.0,FULL,HIGHRISE,Seri Kembangan,Selangor,False,3.0215124791,101.7142152786,https://speedhome.com/reels/univ-360-place-seri-kembangan-ppxefriy
243625,"The Birch, Kuala Lumpur",1,1,0,850,10200,,FULL,ROOM,Kuala Lumpur,Wilayah Persekutuan,False,3.1766203561926845,101.68386662493765,https://speedhome.com/reels/the-birch-kuala-lumpur-gmyawfdb
243309,"Parc 3, Cheras",3,2,2,2900,34800,865.0,FULL,HIGHRISE,Kuala Lumpur,Wilayah Persekutuan,False,3.1218972253,101.7306733131,https://speedhome.com/reels/parc-3-cheras-oopmillq
243288,"Cliveden, Plaza Damas 3",1,1,0,1700,20400,500.0,FULL,HIGHRISE,Kuala Lumpur,Wilayah Persekutuan,False,3.162622352810629,101.65625734513716,https://speedhome.com/reels/cliveden-plaza-damas-3-iiswoizn
242864,"Serini Melawati, Taman Melawati",2,1,1,2100,25200,633.0,FULL,HIGHRISE,Hulu Langat,Wilayah Persekutuan,False,3.209652,101.7518389,https://speedhome.com/reels/serini-melawati-taman-melawati-pxdvprsr
242811,"Taman Seri Minang, Cheras",5,4,2,3000,36000,2403.0,PARTIAL,LANDED,Cheras,Selangor,False,3.057060985706455,101.75868652184998,https://speedhome.com/reels/taman-seri-minang-cheras-lgedbbfe
241967,"The Elements, Ampang Hilir",1,1,1,1950,23400,705.0,FULL,HIGHRISE,Kuala Lumpur,Wilayah Persekutuan,False,3.1612557298,101.7481130362,https://speedhome.com/reels/the-elements-ampang-hilir-goebwpmc
241904,Residensi Metro Kepong,3,2,1,1300,15600,802.0,PARTIAL,HIGHRISE,Kuala Lumpur,Wilayah Persekutuan,False,3.2190682,101.64313,https://speedhome.com/reels/residensi-metro-kepong-ocozjquk
241092,"Arte+, Jalan Ampang",2,2,1,2200,26400,777.0,FULL,HIGHRISE,Kuala Lumpur,Wilayah Persekutuan,False,3.1618303,101.7478411,https://speedhome.com/reels/arte-jalan-ampang-iwnwfrnj
240788,"Lakeside Towers Apartment, Bayan Lepas",3,2,2,1300,15600,1100.0,PARTIAL,HIGHRISE,Bayan Lepas,Pulau Pinang,True,5.345589259957369,100.2758602827037,https://speedhome.com/reels/lakeside-towers-apartment-bayan-lepas-jhckuqic
239813,"Pangsapuri Taming Mutiara, Sungai Long",3,2,1,1000,12000,984.0,NONE,HIGHRISE,Kajang,Selangor,False,3.058934,101.805549,https://speedhome.com/reels/pangsapuri-taming-mutiara-sungai-long-isrnrbit
239637,"Kinrara Mas, Bukit Jalil",3,2,2,1400,16800,1091.0,FULL,HIGHRISE,Kuala Lumpur,Wilayah Persekutuan,False,3.0603839,101.6497786,https://speedhome.com/reels/kinrara-mas-bukit-jalil-dlaqbpxs
239301,Desa Saujana Apartment The Mines,3,2,1,1200,14400,935.0,PARTIAL,HIGHRISE,Seri Kembangan,Selangor,True,3.031908697792008,101.72817386195682,https://speedhome.com/reels/desa-saujana-apartment-the-mines-poxdpzfx
238511,The Birch Residency,2,2,2,2200,26400,800.0,FULL,HIGHRISE,Kuala Lumpur,Wilayah Persekutuan,True,3.1763867,101.6840811,https://speedhome.com/reels/the-birch-residency-dcfqwxlh
238057,"Scenaria, Segambut",1,1,1,600,7200,350.0,FULL,ROOM,Kuala Lumpur,Wilayah Persekutuan,False,3.1824165,101.6512557,https://speedhome.com/reels/scenaria-segambut-gaalpiaa
237996,"Liberty Arc @ Ampang Ukay, Ukay",1,1,2,1900,22800,450.0,FULL,HIGHRISE,Ampang,Selangor,True,3.1724584,101.7564212,https://speedhome.com/reels/liberty-arc-ampang-ukay-ukay-xmkbrmqf
237789,"Kenwingston Platz, Setapak",2,2,1,1600,19200,650.0,PARTIAL,HIGHRISE,Kuala Lumpur,Wilayah Persekutuan,False,3.2010844645155743,101.70337771760785,https://speedhome.com/reels/kenwingston-platz-setapak-wrbryvsn
237715,"Datum Jelatek Serviced Residences, Wilayah Persekutuan",2,1,2,2800,33600,800.0,FULL,HIGHRISE,Kuala Lumpur,Wilayah Persekutuan,False,3.1705321817126184,101.7482935538555,https://speedhome.com/reels/datum-jelatek-serviced-residences-wilayah-persekutuan-evqcxhhw
237430,"Sri Jati 2 Condominium, Puchong",1,1,0,800,9600,1313.0,FULL,ROOM,Kuala Lumpur,Wilayah Persekutuan,True,3.0759389,101.6646894,https://speedhome.com/reels/sri-jati-2-condominium-puchong-jiowvoon
237093,"Pangsapuri Prima Villa, Cheras",1,1,0,600,7200,,PARTIAL,ROOM,Cheras,Selangor,False,3.0732444386827145,101.75869529617015,https://speedhome.com/reels/green-terrain-prima-villa-hdfjfdoc
237011,"Vivo Residential, Old Klang Road",3,2,2,3050,36600,1098.0,FULL,HIGHRISE,Kuala Lumpur,Wilayah Persekutuan,False,3.1052666002179508,101.6771102765173,https://speedhome.com/reels/vivo-residential-old-klang-road-jfybfcew
236176,The Birch,2,2,1,1900,22800,668.0,FULL,HIGHRISE,Kuala Lumpur,Wilayah Persekutuan,False,3.1766203561926845,101.68386662493765,https://speedhome.com/reels/the-birch-mbjrfaba
235138,Residensi Bayu Andaman,3,2,1,1800,21600,1000.0,PARTIAL,HIGHRISE,Kuala Lumpur,Wilayah Persekutuan,False,3.199079955204246,101.69674208370488,https://speedhome.com/reels/residensi-bayu-andaman-rbfqvuao
235063,Pangsapuri Sri Indah,3,2,1,850,10200,680.0,PARTIAL,HIGHRISE,Seri Kembangan,Selangor,False,2.995541923894578,101.66240848184944,https://speedhome.com/reels/pangsapuri-sri-indah-irpxdnzj
233723,Boulevard Service Apartment,3,2,1,1600,19200,1019.0,NONE,HIGHRISE,Kuala Lumpur,Wilayah Persekutuan,False,3.2001273,101.6713918,https://speedhome.com/reels/boulevard-service-apartment-qdrrxywf
233617,"Rosvilla, Segambut",3,2,1,2000,24000,1205.0,FULL,HIGHRISE,Kuala Lumpur,Wilayah Persekutuan,False,3.1792204529,101.6468113661,https://speedhome.com/reels/rosvilla-segambut-fvtjaleo
233418,Savio Riana Dutamas,2,2,1,2400,28800,845.0,FULL,HIGHRISE,Kuala Lumpur,Wilayah Persekutuan,False,3.1854116383,101.6672234233,https://speedhome.com/reels/savio-riana-dutamas-jvssagua
231657,Magnaville Condominium,3,2,1,1500,18000,1026.0,PARTIAL,HIGHRISE,Batu Caves,Selangor,True,3.245219973557231,101.65434184337253,https://speedhome.com/reels/magnaville-condominium-lqriuqhw
231592,"Bandar Saujana Utama, Sungai Buloh",4,3,2,1600,19200,1100.0,NONE,LANDED,Sungai Buloh,Selangor,False,3.2075113109,101.4772367477,https://speedhome.com/reels/bandar-saujana-utama-sungai-buloh-slwggcma
231206,"PPA1M Metropolitan Kepong, Kuala Lumpur",4,2,2,1850,22200,1200.0,NONE,HIGHRISE,Kuala Lumpur,Wilayah Persekutuan,False,3.2280228,101.6528593,https://speedhome.com/reels/ppa1m-metropolitan-kepong-kuala-lumpur-awwldemn
230087,"Fera Residence, Wangsa Maju",3,2,2,2500,30000,819.0,FULL,HIGHRISE,Kuala Lumpur,Wilayah Persekutuan,False,3.1919359028,101.7376899719,https://speedhome.com/reels/fera-residence-wangsa-maju-lffibdxa
229990,"VERVE Suites, Old Klang Road",2,2,2,2600,31200,883.0,FULL,HIGHRISE,Kuala Lumpur,Wilayah Persekutuan,True,3.0921791836,101.6741350293,https://speedhome.com/reels/verve-suites-old-klang-road-dcajdigp
229812,Jalil Damai Apartment,1,1,1,750,9000,1044.0,FULL,ROOM,Kuala Lumpur,Wilayah Persekutuan,False,3.0577186,101.6706227,https://speedhome.com/reels/jalil-damai-apartment-psjghost
229738,M Vertica KL City Residences,3,2,2,2850,34200,850.0,FULL,HIGHRISE,Kuala Lumpur,Wilayah Persekutuan,False,3.118422745861488,101.72757073164374,https://speedhome.com/reels/m-vertica-kl-city-residences-fkketkea
229271,"The Academia South City Plaza, Seri Kembangan",4,2,1,1500,18000,930.0,FULL,HIGHRISE,Seri Kembangan,Selangor,False,3.0275643,101.709922,https://speedhome.com/reels/the-academia-south-city-plaza-seri-kembangan-tfvnphxu
228467,"The Hamilton, Wangsa Maju",1,1,0,950,11400,,FULL,ROOM,Kuala Lumpur,Wilayah Persekutuan,False,3.197342375711511,101.73806563306601,https://speedhome.com/reels/the-hamilton-wangsa-maju-pltpleov
228356,"Perdana Puri Apartment, Kuala Lumpur",3,2,1,1300,15600,904.0,FULL,HIGHRISE,Kuala Lumpur,Wilayah Persekutuan,False,3.2133398,101.6136987,https://speedhome.com/reels/perdana-puri-apartment-kuala-lumpur-jdbpmupf
228272,"The Mark, Cheras",1,1,1,1750,21000,618.0,FULL,HIGHRISE,Kuala Lumpur,Wilayah Persekutuan,False,3.0944668884319717,101.75323872178578,https://speedhome.com/reels/the-mark-cheras-kwsrdceu
228112,"The Elements Ampang Condominium, Kuala Lumpur",1,1,1,2000,24000,705.0,FULL,HIGHRISE,Kuala Lumpur,Wilayah Persekutuan,False,3.161876,101.748082,https://speedhome.com/reels/the-elements-ampang-condominium-kuala-lumpur-vtbepthn
227793,"Sri Mutiara, Sungai Besi",2,2,1,1500,18000,807.0,PARTIAL,HIGHRISE,Kuala Lumpur,Wilayah Persekutuan,False,3.1252717877,101.7086416483,https://speedhome.com/reels/sri-mutiara-sungai-besi-mjktlamd
227189,"Pertiwi Indah, Cheras",3,2,2,2200,26400,1100.0,FULL,HIGHRISE,Kuala Lumpur,Wilayah Persekutuan,False,3.1378433,101.7336774,https://speedhome.com/reels/pertiwi-indah-cheras-kjsvfknp
227025,"Pandan Heights Condominium, Pandan Perdana",3,2,1,1550,18600,900.0,FULL,HIGHRISE,Kuala Lumpur,Wilayah Persekutuan,False,3.113607196714188,101.73873612569463,https://speedhome.com/reels/pandan-heights-condominium-pandan-perdana-zqdafnur
226712,"1 Sentul Condominium, Sentul",3,1,2,1750,21000,1080.0,PARTIAL,HIGHRISE,Kuala Lumpur,Wilayah Persekutuan,False,3.199879009784324,101.69003026864856,https://speedhome.com/reels/1-sentul-condominium-sentul-dqbgugut
226622,"Halo Sunday Studios, Empire City",0,1,1,1300,15600,582.0,FULL,HIGHRISE,Petaling Jaya,Selangor,False,3.1697338,101.6169951,https://speedhome.com/reels/halo-sunday-studios-empire-city-uitigsed
226300,"Residensi Platinum Teratai, Kuala Lumpur",1,1,0,640,7680,,PARTIAL,ROOM,Kuala Lumpur,Wilayah Persekutuan,False,3.2011072,101.7091767,https://speedhome.com/reels/residensi-platinum-teratai-kuala-lumpur-mbixgfcd
224485,"O2 Residence, Seri Kembangan",2,2,2,2100,25200,1305.0,FULL,HIGHRISE,Seri Kembangan,Selangor,False,2.9895222214400743,101.65912200000555,https://speedhome.com/reels/o2-residence-seri-kembangan-fcqviilo
224474,"EcoSky, Jalan Ipoh",3,2,2,2300,27600,1109.0,PARTIAL,HIGHRISE,Kuala Lumpur,Wilayah Persekutuan,True,3.2191391518,101.6709566116,https://speedhome.com/reels/ecosky-jalan-ipoh-ycltulhj
224185,Residensi Kepongmas 2,3,2,1,1500,18000,800.0,PARTIAL,HIGHRISE,Kuala Lumpur,Wilayah Persekutuan,False,3.2197685,101.6418028,https://speedhome.com/reels/residensi-kepongmas-2-mznmvean
223730,"Taman Bukit Segar, Cheras",3,1,0,800,9600,650.0,PARTIAL,HIGHRISE,Kuala Lumpur,Wilayah Persekutuan,False,3.091751,101.748698,https://speedhome.com/reels/taman-bukit-segar-cheras-jjecxvtc
222712,"Eco Grandeur, Kuala Selangor",4,3,2,1600,19200,1800.0,NONE,LANDED,Sungai Buloh,Selangor,False,3.2188976,101.4687089,https://speedhome.com/reels/eco-grandeur-kuala-selangor-lqbnofmv
217819,Brem Park 2,2,2,2,1750,21000,1100.0,FULL,HIGHRISE,Kuala Lumpur,Wilayah Persekutuan,False,3.085555,101.6875275,https://speedhome.com/reels/brem-park-2-kcaisjbf
217753,"Rica Residence, Sentul",1,1,0,850,10200,,FULL,ROOM,Kuala Lumpur,Wilayah Persekutuan,True,3.1781599323,101.6878652573,https://speedhome.com/reels/rica-residence-sentul-peieanbb
217317,Cloudtree Residence Luxury Condominium,5,3,2,2500,30000,1545.0,FULL,HIGHRISE,Kajang,Selangor,False,3.0433471,101.7323188,https://speedhome.com/reels/cloudtree-residence-luxury-condominium-gsefawsu
216774,"Liberty Arc, Ampang",1,1,1,1600,19200,450.0,PARTIAL,HIGHRISE,Ampang,Selangor,False,3.1727609015,101.7565083504,https://speedhome.com/reels/liberty-arc-ampang-wddaflnt
213586,"SkyMeridien, Sentul",1,1,0,1000,12000,,PARTIAL,ROOM,Kuala Lumpur,Wilayah Persekutuan,False,3.188667527488736,101.69558567554041,https://speedhome.com/reels/skymeridien-sentul-sdcxaghc
213539,"Putra Permai Apartment, Bandar Putra Permai",3,2,1,1200,14400,950.0,PARTIAL,HIGHRISE,Seri Kembangan,Selangor,False,2.995305913,101.668446064,https://speedhome.com/reels/putra-permai-apartment-bandar-putra-permai-lyrwupxm
210778,"Southbank Residence, Old Klang Road",3,2,1,2000,24000,960.0,PARTIAL,HIGHRISE,Kuala Lumpur,Wilayah Persekutuan,False,3.1017139024,101.6762244701,https://speedhome.com/reels/southbank-residence-old-klang-road-krjhubps
206449,"M Centura, Sentul",2,1,1,2000,24000,650.0,FULL,HIGHRISE,Kuala Lumpur,Wilayah Persekutuan,True,3.2034807533,101.6904997818,https://speedhome.com/reels/m-centura-sentul-jzhjqosx
206018,"Zenopy Residence, Seri Kembangan",3,2,2,2700,32400,1012.0,PARTIAL,HIGHRISE,Seri Kembangan,Selangor,False,3.0101342355,101.6681885719,https://speedhome.com/reels/zenopy-residence-seri-kembangan-wrolinvx
205925,"The Elements, Ampang",1,1,0,2000,24000,707.0,FULL,HIGHRISE,Kuala Lumpur,Wilayah Persekutuan,False,3.1612557298,101.7481130362,https://speedhome.com/reels/the-elements-ampang-cetdzddh
204818,"Selayang 18 Residences, Batu Caves",3,2,2,1950,23400,1017.0,PARTIAL,HIGHRISE,Batu Caves,Selangor,False,3.2547288376,101.6537797451,https://speedhome.com/reels/selayang-18-selayang-sdpgfqgc
203601,Taman Setapak Indah,3,2,2,1500,18000,1600.0,NONE,LANDED,Kuala Lumpur,Wilayah Persekutuan,True,3.2125673759,101.7195260525,https://speedhome.com/reels/taman-setapak-indah-mnckclgb
201523,Dua Sentral Residences,1,1,1,2300,27600,710.0,FULL,HIGHRISE,Kuala Lumpur,Wilayah Persekutuan,False,3.1362310059,101.6926449537,https://speedhome.com/reels/dua-sentral-residences-oifwitmc
200291,"VERVE Suites, Old Klang Road",2,2,1,2200,26400,729.0,FULL,HIGHRISE,Kuala Lumpur,Wilayah Persekutuan,False,3.0921791836,101.6741350293,https://speedhome.com/reels/verve-suites-old-klang-road-faubfggv
199098,Double Storey Terrace at Overseas Union Garden (OUG),4,2,1,1600,19200,1600.0,NONE,LANDED,Kuala Lumpur,Wilayah Persekutuan,False,3.075842703682351,101.67455254452818,https://speedhome.com/reels/double-storey-terrace-at-overseas-union-garden-oug-thxpjecp
198947,"The Ridge, KL East",2,2,1,2900,34800,865.0,FULL,HIGHRISE,Hulu Langat,Wilayah Persekutuan,False,3.225458,101.730612,https://speedhome.com/reels/the-ridge-kl-east-yiijcrlm
197940,"Iris Apartment, Taman Desa",2,2,1,1200,14400,650.0,FULL,HIGHRISE,Kuala Lumpur,Wilayah Persekutuan,False,3.0960680737,101.6879886389,https://speedhome.com/reels/iris-apartment-taman-desa-ffcwnwdj
196284,"Diamond Regency, Setapak",3,2,2,1500,18000,1002.0,NONE,HIGHRISE,Kuala Lumpur,Wilayah Persekutuan,True,3.1960295,101.7059837,https://speedhome.com/reels/diamond-regency-setapak-bkzgqsfe
196247,"TR Residence, Kuala Lumpur",3,2,1,2800,33600,753.0,PARTIAL,HIGHRISE,Kuala Lumpur,Wilayah Persekutuan,False,3.1724716669,101.6964805126,https://speedhome.com/reels/tr-residence-kuala-lumpur-thxajbkq
192663,Selesa Residence,1,1,0,650,7800,,FULL,ROOM,,,True,3.0833383,101.6890151,https://speedhome.com/reels/the-riyang-selesa-apartments-idnkscmk
191053,"Liberty Arc, Ampang Jaya",1,1,1,1800,21600,450.0,FULL,HIGHRISE,Ampang,Selangor,False,3.1727609015,101.7565083504,https://speedhome.com/reels/liberty-arc-ampang-jaya-vhlfpnva
190614,"Empire City, Damansara Perdana",0,1,0,3200,38400,1044.0,PARTIAL,HIGHRISE,Kuala Lumpur,Wilayah Persekutuan,True,3.1683152498,101.6154402494,https://speedhome.com/reels/empire-city-damansara-perdana-tjklpzzc
188336,"The Henge Residence, Kepong",3,2,1,1500,18000,1100.0,PARTIAL,HIGHRISE,Kuala Lumpur,Wilayah Persekutuan,True,3.2206441736,101.6425037384,https://speedhome.com/reels/the-henge-residence-kepong-vlftusjc
188145,"East Lake Residence, Seri Kembangan",1,1,0,650,7800,,PARTIAL,ROOM,Seri Kembangan,Selangor,False,3.033233,101.70707,https://speedhome.com/reels/east-lake-residence-seri-kembangan-cewrvojo
187216,"Southlink, Bangsar South",0,1,1,2700,32400,452.0,FULL,HIGHRISE,Kuala Lumpur,Wilayah Persekutuan,False,3.1129733,101.6667294,https://speedhome.com/reels/southlink-bangsar-south-kydzdosz
186851,Residensi Desa Satumas,3,2,1,1400,16800,850.0,PARTIAL,HIGHRISE,Kuala Lumpur,Wilayah Persekutuan,False,3.097903919785653,101.69100552395031,https://speedhome.com/reels/residensi-desa-satumas-zrlagiqo
186477,Soho Trio Permai,0,1,1,1050,12600,450.0,PARTIAL,HIGHRISE,Seri Kembangan,Selangor,True,3.0002993423256226,101.6790016422284,https://speedhome.com/reels/soho-trio-permai-ezcjjqqy
185958,"Arte +, Jalan Ampang",2,2,1,2000,24000,721.0,FULL,HIGHRISE,Kuala Lumpur,Wilayah Persekutuan,False,3.1610521921,101.7476275563,https://speedhome.com/reels/arte-jalan-ampang-kwpfjxqd
185837,Residensi Bukit PALMA 1,3,2,2,1700,20400,1080.0,PARTIAL,HIGHRISE,Cheras,Selangor,False,3.0250549,101.8056402,https://speedhome.com/reels/residensi-bukit-palma-1-vvqkdeiu
185231,PV20,4,2,2,1950,23400,1333.0,PARTIAL,HIGHRISE,Kuala Lumpur,Wilayah Persekutuan,False,3.1989630763,101.7213606834,https://speedhome.com/reels/pv20-ujftgyqz
184896,"Tuan Residency, KL City",3,2,1,2250,27000,878.0,FULL,HIGHRISE,Kuala Lumpur,Wilayah Persekutuan,False,3.1954709199,101.6703987122,https://speedhome.com/reels/tuan-residency-kl-city-xixovxsi
182185,Rooms for rent at OUG PARKLANE,1,1,0,800,9600,950.0,FULL,ROOM,Kuala Lumpur,Wilayah Persekutuan,False,3.0690618,101.6571812,https://speedhome.com/reels/rooms-for-rent-at-oug-parklane-czyujqdd
181878,Oug Parklane,1,1,0,600,7200,950.0,FULL,ROOM,Kuala Lumpur,Wilayah Persekutuan,False,3.0690618,101.6571812,https://speedhome.com/reels/oug-parklane-eukolipo
181553,Chymes Gurney Residence KL,2,2,1,2999,35988,1122.0,FULL,HIGHRISE,Kuala Lumpur,Wilayah Persekutuan,False,3.169608,101.726011,https://speedhome.com/reels/chymes-gurney-residence-kl-jzkfikmd
178329,"TR Residence, Kuala Lumpur",1,1,0,990,11880,,FULL,ROOM,Kuala Lumpur,Wilayah Persekutuan,True,3.1724716669,101.6964805126,https://speedhome.com/reels/tr-residence-kuala-lumpur-crzysqxz
177907,"Southlink, Bangsar South",2,1,1,3000,36000,592.0,FULL,HIGHRISE,Kuala Lumpur,Wilayah Persekutuan,False,3.1129733,101.6667294,https://speedhome.com/reels/southlink-bangsar-south-dtyzmuwg
177737,res280 condominiums female room (Hospital Selayang),1,1,0,1100,13200,,FULL,ROOM,Batu Caves,Selangor,False,3.2425264,101.6462791,https://speedhome.com/reels/res280-condominiums-hospital-selayang-gacomjtx
171624,"Casa Green, Bukit Jalil",3,3,2,2400,28800,1003.0,FULL,HIGHRISE,Kuala Lumpur,Wilayah Persekutuan,False,3.0649244147,101.6638970375,https://speedhome.com/reels/casa-green-bukit-jalil-bjgsgjhl
171393,"Green Terrain, Cheras South",1,1,0,600,7200,,FULL,ROOM,Cheras,Selangor,True,3.0727023797,101.7580962181,https://speedhome.com/reels/green-terrain-cheras-south-otilkvya
171199,"Sri Jati II, Kuala Lumpur",3,2,1,2000,24000,1333.0,FULL,HIGHRISE,Kuala Lumpur,Wilayah Persekutuan,False,3.075809,101.664611,https://speedhome.com/reels/sri-jati-ii-kuala-lumpur-wudhckka
167079,"Suria Jelatek Residence, Ampang Hilir",0,1,0,1900,22800,800.0,FULL,HIGHRISE,Kuala Lumpur,Wilayah Persekutuan,False,3.1631089924,101.7355388403,https://speedhome.com/reels/suria-jelatek-residence-ampang-hilir-uhnbgzja
162317,"One Residences, Sungai Besi",2,2,2,1900,22800,888.0,PARTIAL,HIGHRISE,Kuala Lumpur,Wilayah Persekutuan,False,3.1263769065659224,101.71189540272398,https://speedhome.com/reels/one-residences-sungai-besi-ciklxkgp
161577,Pangsapuri Mawar,3,2,1,1800,21600,1080.0,FULL,HIGHRISE,Kuala Lumpur,Wilayah Persekutuan,False,2.9845358,101.6611954,https://speedhome.com/reels/pangsapuri-mawar-mipnfrcx
158448,"Amaya Maluri, Cheras",2,2,2,2600,31200,920.0,FULL,HIGHRISE,Kuala Lumpur,Wilayah Persekutuan,False,3.1273862,101.7295977,https://speedhome.com/reels/amaya-maluri-cheras-sjfylggt
158031,"Regalia Residence, Kuala Lumpur",0,1,1,2100,25200,600.0,FULL,HIGHRISE,Kuala Lumpur,Wilayah Persekutuan,False,3.164429,101.692577,https://speedhome.com/reels/regalia-residence-tiijztqi
157331,Garden One South,3,2,3,1800,21600,1065.0,FULL,HIGHRISE,Seri Kembangan,Selangor,False,3.037039450034084,101.70769642601385,https://speedhome.com/reels/garden-one-south-pzzctxtt
157289,"Desa Green Serviced Apartment, Taman Desa",1,1,1,1600,19200,578.0,FULL,HIGHRISE,Kuala Lumpur,Wilayah Persekutuan,True,3.1059152,101.6950798,https://speedhome.com/reels/desa-green-serviced-apartment-taman-desa-gosgiecy
155139,Villa Puteri Condominium,3,2,1,2300,27600,1119.0,FULL,HIGHRISE,Kuala Lumpur,Wilayah Persekutuan,False,3.1657914,101.6923278,https://speedhome.com/reels/villa-puteri-condominium-omcppfit
154406,Dsara Sentral sungai Buloh,1,1,1,1600,19200,504.0,FULL,HIGHRISE,Shah Alam,Selangor,True,3.1995276298431996,101.57727569756827,https://speedhome.com/reels/dsara-sentral-sungai-buloh-klnvmomg
153227,"Platinum Lake PV20, Setapak",4,2,2,1800,21600,1313.0,PARTIAL,HIGHRISE,Kuala Lumpur,Wilayah Persekutuan,False,3.1992526,101.7215084,https://speedhome.com/reels/platinum-lake-pv20-setapak-exfdjlfu
150951,PPA1M BUKIT JALIL,3,2,1,1500,18000,1200.0,PARTIAL,HIGHRISE,Kuala Lumpur,Wilayah Persekutuan,False,3.0540217,101.6966451,https://speedhome.com/reels/ppa1m-bukit-jalil-jbpixnkf
150597,"Sentul Point, Sentul",3,2,1,1700,20400,850.0,PARTIAL,HIGHRISE,Kuala Lumpur,Wilayah Persekutuan,True,3.2000664,101.6896784,https://speedhome.com/reels/sentul-point-sentul-uejjtgxw
150560,"Rica Residence, Sentul",2,1,1,1600,19200,657.0,NONE,HIGHRISE,Kuala Lumpur,Wilayah Persekutuan,False,3.1784228,101.6876832,https://speedhome.com/reels/rica-residence-sentul-kiunkejv
150176,"United Point Residence, Segambut",3,2,1,1900,22800,829.0,PARTIAL,HIGHRISE,Kuala Lumpur,Wilayah Persekutuan,False,3.1918287809,101.6535115242,https://speedhome.com/reels/united-point-residence-segambut-aqerzlsb
149891,The Palladium Jalan Gurney 2,3,2,1,2000,24000,1090.0,FULL,HIGHRISE,Kuala Lumpur,Wilayah Persekutuan,False,3.166752,101.7174571,https://speedhome.com/reels/the-palladium-jalan-gurney-2-qmjdvjxb
149457,"Maytower, Dang Wangi",0,1,0,1500,18000,439.0,FULL,HIGHRISE,Kuala Lumpur,Wilayah Persekutuan,True,3.154207,101.698101,https://speedhome.com/reels/maytower-dang-wangi-klurxghf
149350,"Lakeville Residence, Jalan Ipoh",3,2,2,2200,26400,977.0,FULL,HIGHRISE,Batu Caves,Selangor,False,3.2097822585,101.6678881645,https://speedhome.com/reels/lakeville-residence-jalan-ipoh-xokhfnof
148526,"Parkview Service Apartment, Kuala Lumpur",1,1,0,1950,23400,495.0,FULL,HIGHRISE,Kuala Lumpur,Wilayah Persekutuan,False,3.156034,101.708522,https://speedhome.com/reels/parkview-service-apartment-kuala-lumpur-amkozsfp
147078,"Kenwingston Avenue, Sungai Besi",3,2,1,2450,29400,850.0,FULL,HIGHRISE,Kuala Lumpur,Wilayah Persekutuan,True,3.082699692,101.7004247111,https://speedhome.com/reels/kenwingston-avenue-sungai-besi-uojaujjw
146590,"Kiara East, Kuala Lumpur",2,1,1,1850,22200,700.0,FULL,HIGHRISE,Kuala Lumpur,Wilayah Persekutuan,False,3.213625185669166,101.67674045182423,https://speedhome.com/reels/kiara-east-kuala-lumpur-qiciakaz
146085,Denai Alam,4,4,2,1700,20400,2224.0,PARTIAL,LANDED,Shah Alam,Selangor,True,3.157148609737461,101.51215980943152,https://speedhome.com/reels/denai-alam-jwhifmzr
145468,"South View Residence, Bangsar South",3,2,1,3400,40800,990.0,FULL,HIGHRISE,Kuala Lumpur,Wilayah Persekutuan,False,3.1138142,101.6645729,https://speedhome.com/reels/southlink-lifestyle-apartments-bangsar-south-dxnnxyhg
145465,"South View, Bangsar South",1,1,0,1350,16200,,FULL,ROOM,Kuala Lumpur,Wilayah Persekutuan,False,3.1139053613,101.6651469469,https://speedhome.com/reels/south-view-bangsar-south-zsnyvrkh
145013,Teratak Damai Unit C,1,1,1,800,9600,,PARTIAL,ROOM,Kajang,Selangor,True,3.0978152,101.6831845,https://speedhome.com/reels/teratak-damai-unit-c-uulkyxxh
144941,"PPA1M Bukit Jalil, Bukit Jalil",4,2,1,1850,22200,1450.0,FULL,HIGHRISE,Kuala Lumpur,Wilayah Persekutuan,True,3.0540217,101.6966451,https://speedhome.com/reels/ppa1m-bukit-jalil-bukit-jalil-bfbciqkj
144803,"PPAM Metropolitan Kepong, Kuala Lumpur",3,2,2,1800,21600,1300.0,FULL,HIGHRISE,Kuala Lumpur,Wilayah Persekutuan,True,3.2284373652234306,101.65305425316852,https://speedhome.com/reels/ppam-metropolitan-kepong-dfdgjovq
144689,"1 Petaling, Sungai Besi",3,2,1,1700,20400,1098.0,FULL,HIGHRISE,Kuala Lumpur,Wilayah Persekutuan,False,3.139003,101.686855,https://speedhome.com/reels/1-petaling-sungai-besi-yxxkwcpz
143830,"Green Park, Seri Kembangan , Serdang, Tanming Jaya, Taman Balakong Jaya",1,1,0,400,4800,,FULL,ROOM,Seri Kembangan,Selangor,False,3.002414416121645,101.73311820682684,https://speedhome.com/reels/green-park-seri-kembangan-serdang-tanming-jaya-taman-balakong-jaya-ocxrqqou
140826,"Pantai Panorama, Pantai",3,2,1,2600,31200,1250.0,FULL,HIGHRISE,,,False,3.1105659,101.6626271,https://speedhome.com/reels/pantai-panorama-pantai-fsetypeb
140825,"The Scott Garden, Old Klang Road",1,2,1,1500,18000,775.0,PARTIAL,HIGHRISE,,,True,3.0948896236,101.6738694906,https://speedhome.com/reels/the-scott-garden-old-klang-road-jktzrxpg
139569,"Danau Impian, Taman Desa",3,2,1,1500,18000,980.0,NONE,HIGHRISE,,,False,3.100318,101.688224,https://speedhome.com/reels/danau-impian-taman-desa-fxpxgrtl
136828,"The Haute, Gurney KL",3,2,2,2600,31200,1050.0,FULL,HIGHRISE,,,False,3.1711326168,101.7273259163,https://speedhome.com/reels/the-haute-gurney-kl-ehcforjg
136698,"Mercury Serviced Apartment @ Sentul Village, Sentul",3,2,1,1600,19200,948.0,PARTIAL,HIGHRISE,,,False,3.2100607706,101.6890025139,https://speedhome.com/reels/mercury-serviced-apartment-sentul-village-sentul-ylkhvwcu
135918,"United Point Residence, Segambut",3,2,2,2800,33600,958.0,FULL,HIGHRISE,,,False,3.1918287809,101.6535115242,https://speedhome.com/reels/united-point-residence-segambut-ubutqwoi
135307,"Fortune Park, Seri Kembangan",1,1,0,3980,47760,,NONE,ROOM,,,True,3.0365529,101.7069474,https://speedhome.com/reels/fortune-park-seri-kembangan-kndevdzo
135234,"Fortune Park, Seri Kembangan",3,2,1,3790,45480,970.0,PARTIAL,HIGHRISE,,,True,3.0365654336,101.7069196701,https://speedhome.com/reels/fortune-park-seri-kembangan-bdrfjthe
135233,"Fortune Park, Seri Kembangan",3,2,1,2800,33600,920.0,FULL,HIGHRISE,,,False,3.0365529,101.7069474,https://speedhome.com/reels/fortune-park-seri-kembangan-gcyemptl
133260,"Kinrara Mas, Bukit Jalil",3,2,0,1450,17400,1091.0,NONE,HIGHRISE,,,False,3.05965,101.65,https://speedhome.com/reels/kinrara-mas-bukit-jalil-vfpnozhd
132039,"Silk Sky, Balakong",0,1,1,1400,16800,484.0,FULL,HIGHRISE,,,False,3.027086,101.750595,https://speedhome.com/reels/silk-sky-balakong-auhgujju
131865,"Emerald Avenue, Selayang",2,2,1,1350,16200,980.0,PARTIAL,HIGHRISE,,,False,3.24421006,101.6513872147,https://speedhome.com/reels/emerald-avenue-selayang-fmaupufv
131476,"Pangsapuri Cemara, Cheras",3,2,0,850,10200,650.0,NONE,HIGHRISE,Kuala Lumpur,Wilayah Persekutuan,False,3.1018090591004066,101.70847228072665,https://speedhome.com/reels/cemara-apartment-cheras-kmcrapfm
130671,"Liberty Arc, Ampang Ukay",1,1,1,1600,19200,450.0,FULL,HIGHRISE,,,False,3.1727609015,101.7565083504,https://speedhome.com/reels/liberty-arc-ampang-ukay-qnmbqazo
130099,"The Maple, Sentul",4,3,2,3600,43200,1569.0,PARTIAL,HIGHRISE,,,True,3.18501,101.683,https://speedhome.com/reels/the-maple-sentul-lvnhaixt
129902,"REV.O @ Bukit Jalil City, Bukit Jalil",0,1,0,1900,22800,384.0,FULL,HIGHRISE,,,True,3.0537394733,101.6691970825,https://speedhome.com/reels/revo-bukit-jalil-city-bukit-jalil-rpgycnuw
128652,"East Lake Residence, Seri Kembangan",3,2,1,2000,24000,1093.0,PARTIAL,HIGHRISE,,,True,3.033233,101.70707,https://speedhome.com/reels/east-lake-residence-seri-kembangan-zgzetpnk
128276,Liberty Arc @ Ampang Ukay,1,1,2,1630,19560,450.0,FULL,HIGHRISE,,,False,3.1727609015,101.7565083504,https://speedhome.com/reels/liberty-arc-ampang-ukay-oglzdebf
128270,"Windsor Tower, Sri Hartamas",0,1,0,1600,19200,500.0,FULL,HIGHRISE,,,False,3.16454,101.658,https://speedhome.com/reels/windsor-tower-sri-hartamas-hlkvfdpk
127371,"D'Sands Residence, Old Klang Road",2,2,1,2400,28800,868.0,FULL,HIGHRISE,,,False,3.0849155988,101.6632962227,https://speedhome.com/reels/dsands-residence-old-klang-road-hcyzurqw
126941,"Southbank Residence, Old Klang Road",2,2,1,2500,30000,798.0,FULL,HIGHRISE,,,False,3.1017139024,101.6762244701,https://speedhome.com/reels/southbank-residence-old-klang-road-sraufcvv
125999,"The Ridge, KL East",1,1,1,2300,27600,651.0,PARTIAL,HIGHRISE,,,False,3.2257856080540956,101.73061859750983,https://speedhome.com/reels/the-ridge-kl-east-cadsaefn
124839,"3 Towers, Ampang Hilir",0,1,0,1300,15600,420.0,PARTIAL,HIGHRISE,,,False,3.1607376,101.7417881,https://speedhome.com/reels/3-towers-ampang-hilir-jgkytbki
124567,"VERVE Suites, Old Klang Road",2,2,2,2800,33600,876.0,FULL,HIGHRISE,,,False,3.092458,101.674629,https://speedhome.com/reels/verve-suites-old-klang-road-lyepyzdl
124295,"Liberty Arc, Ampang",1,1,1,1600,19200,473.0,PARTIAL,HIGHRISE,,,True,3.1727609015,101.7565083504,https://speedhome.com/reels/liberty-arc-ampang-qegdpmbx
123002,"Amara Residences, Batu Caves",3,2,2,1500,18000,1012.0,PARTIAL,HIGHRISE,Batu Caves,Selangor,False,3.2418427843,101.679802537,https://speedhome.com/reels/amara-residences-batu-caves-niwueugc
121818,"The Elements, Ampang Hilir",1,1,1,1800,21600,705.0,PARTIAL,HIGHRISE,,,False,3.161861,101.748087,https://speedhome.com/reels/the-elements-ampang-hilir-gwokvbkq
121559,"Paragon 3, Bandar Putra Permai",4,3,2,2250,27000,1487.0,FULL,HIGHRISE,,,True,2.9936344998,101.6502177715,https://speedhome.com/reels/paragon-3-bandar-putra-permai-qyzyvfyu
120493,BAM Villa condo,2,2,1,1750,21000,980.0,FULL,HIGHRISE,,,False,3.1371094524,101.732006371,https://speedhome.com/reels/bam-villa-condo-jqavbjuv
120206,"SqWhere, Sungai Buloh",2,2,2,2200,26400,1054.0,FULL,HIGHRISE,,,False,3.1981685,101.5771591,https://speedhome.com/reels/sqwhere-sungai-buloh-rddllclv
119175,"CloudTree, Bandar Damai Perdana",1,1,0,550,6600,,FULL,ROOM,,,False,3.0468601,101.7348534,https://speedhome.com/reels/cloudtree-bandar-damai-perdana-kvirwxjh
118600,Annexe,1,1,1,1600,19200,650.0,FULL,LANDED,,,True,3.1307692564799003,101.6877358134936,https://speedhome.com/reels/annexe-kqpmorxh
118038,"CloudTree, Bandar Damai Perdana",1,1,0,750,9000,,FULL,ROOM,,,False,3.042605,101.7326344,https://speedhome.com/reels/cloudtree-bandar-damai-perdana-xnrehagn
117883,"Parkview Serviced Apartment, Kuala Lumpur",1,1,1,1950,23400,500.0,FULL,HIGHRISE,,,False,3.155983,101.7085,https://speedhome.com/reels/parkview-serviced-apartment-kuala-lumpur-skgnubtn
115594,"222 Residency, Setapak",2,2,1,2250,27000,904.0,FULL,HIGHRISE,,,True,3.1968352,101.7075856,https://speedhome.com/reels/222-residency-setapak-uvrwgssk
113712,"M Suites, Ampang Hilir",2,2,1,2300,27600,1020.0,FULL,HIGHRISE,,,True,3.160109,101.735394,https://speedhome.com/reels/m-suites-ampang-hilir-dnjgxtbk
113070,"Arte +, Jalan Ampang",1,1,1,1800,21600,604.0,FULL,HIGHRISE,,,False,3.1610521921,101.7476275563,https://speedhome.com/reels/arte-jalan-ampang-qddunany
110817,"Menara KLH, Jalan Ipoh",3,3,1,1780,21360,1200.0,PARTIAL,HIGHRISE,,,False,3.176431,101.682094,https://speedhome.com/reels/menara-klh-jalan-ipoh-vtejuvyj
109937,"Maxim Citilights, Sentul",3,2,2,1400,16800,1009.0,PARTIAL,HIGHRISE,,,False,3.198338,101.686864,https://speedhome.com/reels/maxim-citilights-sentul-glbhnhmo
107604,"Lavender Residences, Kajang",3,2,2,1300,15600,1080.0,NONE,HIGHRISE,,,True,3.0432400929,101.8070840836,https://speedhome.com/reels/lavender-residences-kajang-gntwrqbc
107417,"The Elements, Ampang",1,1,1,1950,23400,640.0,FULL,HIGHRISE,,,False,3.1612557298,101.7481130362,https://speedhome.com/reels/the-elements-ampang-wpnoefix
107217,"Villa Pavilion, Seri Kembangan",3,2,1,1500,18000,915.0,PARTIAL,HIGHRISE,,,False,3.0432186655,101.6944634914,https://speedhome.com/reels/villa-pavilion-seri-kembangan-xxqlcspt
106352,Marc Residence KLCC Suites,2,2,2,4000,48000,1066.0,FULL,HIGHRISE,,,False,3.1553174,101.70996990000003,https://speedhome.com/reels/marc-residence-klcc-suites-qfmkpbgi
106293,"Tower M, Empire City",1,2,1,1500,18000,915.0,PARTIAL,HIGHRISE,,,True,3.169517260847828,101.61585443572048,https://speedhome.com/reels/tower-m-empire-city-lnpjbpgj
103882,"MCity, Jalan Ampang, Kuala Lumpur",1,1,0,1800,21600,510.0,FULL,ROOM,Kuala Lumpur,Wilayah Persekutuan,False,3.159041,101.747901,https://speedhome.com/reels/m-city-kuala-lumpur-ptrpbctd
103563,"Suria Jelatek Residence, Ampang Hilir",1,1,0,1000,12000,,FULL,ROOM,,,True,3.1632406,101.7355665,https://speedhome.com/reels/suria-jelatek-residence-ampang-hilir-fxgfnwyw
103278,"Cempaka Suits, Cheras",0,1,0,1650,19800,500.0,FULL,HIGHRISE,,,False,3.1220413,101.7295829,https://speedhome.com/reels/cempaka-suits-cheras-mtjiygrr
103197,"Suria Jelatek Residence, Ampang Hilir",1,1,0,950,11400,,FULL,ROOM,Kuala Lumpur,Wilayah Persekutuan,False,3.1631089924,101.73553884030002,https://speedhome.com/reels/suria-jelatek-residence-ampang-hilir-igzwcssq
102636,"Menara Megah Condominium, Kuala Lumpur",3,2,1,1800,21600,1068.0,PARTIAL,HIGHRISE,,,False,3.1729812293359942,101.68851754818542,https://speedhome.com/reels/menara-megah-condominium-jwhgcetk
102324,"3 Elements SOFO, Seri Kembangan",1,1,1,1500,18000,531.0,FULL,HIGHRISE,,,False,2.9825572,101.667597,https://speedhome.com/reels/3-elements-sofo-seri-kembangan-enptsjwq
101943,"V-Residensi, Selayang Heights",3,3,2,1450,17400,1200.0,PARTIAL,HIGHRISE,,,True,3.2736987788,101.6527926922,https://speedhome.com/reels/vresidensi-selayang-heights-wtmzqeen
99277,"Royalle Condominium, Segambut",2,3,1,2200,26400,990.0,FULL,HIGHRISE,,,True,3.1829697594,101.6529482603,https://speedhome.com/reels/royalle-condominium-segambut-rulaliej
