id,name,bedroom,bathroom,carpark,monthly_price,yearly_price,sqft,furnish_type,property_type,city,state,pet_friendly,latitude,longitude,listing_url
301296,"The Zizz, Damansara Damai",1,1,0,590,7080,250.0,FULL,ROOM,Petaling Jaya,Selangor,True,3.1987059855,101.5964984894,https://speedhome.com/reels/the-zizz-damansara-damai-facoverx
301259,"121 Residences, Petaling Jaya",2,1,0,1600,19200,300.0,NONE,HIGHRISE,Petaling Jaya,Selangor,True,3.1363546,101.6136109,https://speedhome.com/reels/121-residences-petaling-jaya-ttbziiqq
301245,"Empire Damansara, Petaling Jaya",1,1,0,1250,15000,580.0,PARTIAL,HIGHRISE,Petaling Jaya,Selangor,False,3.1657335493,101.6121304035,https://speedhome.com/reels/empire-damansara-petaling-jaya-ccungpyf
301230,"Apartment Desa Mentari, Petaling Jaya",3,1,1,1200,14400,650.0,NONE,HIGHRISE,Petaling Jaya,Selangor,True,3.080469541187698,101.61693151303707,https://speedhome.com/reels/mentari-court-petaling-jaya-nkjtkgwq
301177,"Flat PKNS SS8, Petaling Jaya",2,1,0,850,10200,650.0,NONE,HIGHRISE,Petaling Jaya,Selangor,True,3.0894872316208852,101.61416778810204,https://speedhome.com/reels/flat-pkns-ss8-petaling-jaya-yitgqkgi
301032,"Mentari Court, Petaling Jaya",3,2,0,1500,18000,780.0,PARTIAL,HIGHRISE,Petaling Jaya,Selangor,True,3.0820444336,101.6082948446,https://speedhome.com/reels/mentari-court-petaling-jaya-uteeihrx
301025,"Maya Ara Residences, Petaling Jaya",2,1,2,2450,29400,550.0,FULL,HIGHRISE,Petaling Jaya,Selangor,False,3.1182440792344996,101.58072236650716,https://speedhome.com/reels/maya-ara-residences-petaling-jaya-mqkuxukn
300992,"SS 4, Petaling Jaya",1,1,1,500,6000,150.0,NONE,LANDED,Petaling Jaya,Selangor,True,3.1108987007152145,101.60967208413298,https://speedhome.com/reels/ss-4-petaling-jaya-exbszjzb
300978,"Arnica Serviced Residences, Petaling Jaya",1,1,1,3000,36000,597.0,FULL,HIGHRISE,Petaling Jaya,Selangor,True,3.149214799,101.5932369232,https://speedhome.com/reels/arnica-serviced-residences-petaling-jaya-rqdelarh
300965,"AraTre' Residences, Petaling Jaya",1,1,0,850,10200,120.0,FULL,ROOM,Petaling Jaya,Selangor,False,3.1123541977336524,101.58372919709713,https://speedhome.com/reels/aratre-residences-petaling-jaya-zydjgbwh
300922,Sunway Geolake Residences,3,2,2,6500,78000,1001.0,FULL,HIGHRISE,Subang Jaya,Selangor,False,3.0639816272,101.6087722778,https://speedhome.com/reels/sunway-geolake-residences-dwsxsusf
300820,"Puncak Damansara Condominium, Petaling Jaya",3,2,0,2400,28800,1114.0,NONE,HIGHRISE,Petaling Jaya,Selangor,False,3.136711697943813,101.61615644602786,https://speedhome.com/reels/puncak-damansara-condominium-petaling-jaya-rjoceeev
300788,"Pacific Star Tower, Petaling Jaya",1,1,1,1700,20400,342.0,NONE,HIGHRISE,Petaling Jaya,Selangor,False,3.116750664557432,101.63477119549691,https://speedhome.com/reels/pacific-star-tower-petaling-jaya-rqrtwcpe
300787,"Oasis Damansara, Petaling Jaya",1,1,1,1800,21600,572.0,FULL,HIGHRISE,Petaling Jaya,Selangor,False,3.113665,101.574957,https://speedhome.com/reels/oasis-damansara-petaling-jaya-rdzuzazy
300687,"Perla Ara Sentral, Petaling Jaya",2,1,1,2200,26400,550.0,FULL,HIGHRISE,Petaling Jaya,Selangor,False,3.108182489325752,101.58531016572681,https://speedhome.com/reels/perla-ara-sentral-petaling-jaya-hiwkzikh
300548,"SS12, Subang Jaya",3,2,2,2100,25200,1800.0,PARTIAL,LANDED,Subang Jaya,Selangor,False,3.0787902,101.5949156,https://speedhome.com/reels/ss12-subang-jaya-hwpxnypk
300250,"Palm Spring, Petaling Jaya",1,1,1,685,8220,,FULL,ROOM,Petaling Jaya,Selangor,True,3.15096,101.599,https://speedhome.com/reels/palm-spring-petaling-jaya-mgwqfqxp
300189,"Empire City, Petaling Jaya",0,1,0,1300,15600,447.0,PARTIAL,HIGHRISE,Kuala Lumpur,Wilayah Persekutuan,False,3.1683152498,101.6154402494,https://speedhome.com/reels/empire-city-petaling-jaya-ahhondli
300117,"Taman Alam Megah, Shah Alam",3,1,2,1300,15600,798.0,NONE,LANDED,Shah Alam,Selangor,True,3.10788319098835,101.60336709672929,https://speedhome.com/reels/taman-alam-megah-shah-alam-xjhajhsg
299888,"Empire Damansara, Petaling Jaya",1,1,0,1200,14400,363.0,FULL,HIGHRISE,Petaling Jaya,Selangor,False,3.1657335493,101.6121304035,https://speedhome.com/reels/empire-damansara-petaling-jaya-rnurjxft
299805,"Ryan & Miho, Petaling Jaya",2,1,1,2200,26400,678.0,PARTIAL,HIGHRISE,Petaling Jaya,Selangor,True,3.1184905132,101.6337704659,https://speedhome.com/reels/ryan-miho-petaling-jaya-kfxzzuvq
298972,"Saujana Residency, Subang Jaya",2,2,1,3300,39600,1360.0,PARTIAL,HIGHRISE,Subang Jaya,Selangor,True,3.0831800446,101.5845626593,https://speedhome.com/reels/saujana-residency-subang-jaya-jkjmodwd
298971,"H2O Residences, Petaling Jaya",2,2,2,2200,26400,754.0,PARTIAL,HIGHRISE,Petaling Jaya,Selangor,True,3.1164229121,101.5773206949,https://speedhome.com/reels/h2o-residences-petaling-jaya-sswfujaz
298845,"Paxtonz Empire City, Damansara Perdana",1,1,1,1400,16800,334.0,PARTIAL,HIGHRISE,Petaling Jaya,Selangor,False,3.167482439301825,101.61687192433267,https://speedhome.com/reels/paxtonz-empire-city-damansara-perdana-htrqchxr
298814,"Southplace Residences, Tropicana Metropark",2,2,2,2400,28800,700.0,PARTIAL,HIGHRISE,Subang Jaya,Selangor,False,3.0703547760903414,101.56384626666126,https://speedhome.com/reels/southplace-residences-tropicana-metropark-kuuanrnd
298388,"Damansara Utama, Petaling Jaya",4,3,1,2800,33600,1496.0,PARTIAL,LANDED,Petaling Jaya,Selangor,True,3.1308606273293482,101.62067284012643,https://speedhome.com/reels/damansara-utama-petaling-jaya-ivplbltc
295084,"NEW Internediate Fully Furnished Room For Rent @ SS15, Subang Jaya",1,1,0,650,7800,,FULL,ROOM,Subang Jaya,Selangor,False,3.079322,101.587194,https://speedhome.com/reels/ss15-subang-jaya-yzsvebxj
294396,PALM SPRING F20-08,1,1,1,690,8280,300.0,PARTIAL,ROOM,Petaling Jaya,Selangor,True,3.1507607001327136,101.6001570560144,https://speedhome.com/reels/palm-spring-f200804-ctfgnveo
294395,PALM SPRING F0216,1,1,1,670,8040,300.0,FULL,ROOM,Petaling Jaya,Selangor,True,3.1507607001327136,101.6001570560144,https://speedhome.com/reels/palm-spring-f021605-qezahqxi
294394,PALM SPRING C0903,1,1,1,490,5880,200.0,PARTIAL,ROOM,Petaling Jaya,Selangor,True,3.150503597273818,101.60032871737249,https://speedhome.com/reels/palm-spring-c090307-grbmuajc
294177,PALM SPRING AG13,1,1,1,850,10200,300.0,PARTIAL,ROOM,Puchong,Selangor,True,3.0641530432,101.6461864114,https://speedhome.com/reels/palm-spring-ag1302-vryogsri
294014,Courtyard 3,1,1,0,580,6960,200.0,PARTIAL,ROOM,Petaling Jaya,Selangor,True,3.150498240514669,101.59351976666164,https://speedhome.com/reels/courtyard-3-wgxddrqi
293821,PALM SPRING B-05-11,1,1,1,680,8160,300.0,PARTIAL,ROOM,Petaling Jaya,Selangor,True,3.15058929823384,101.6002428879275,https://speedhome.com/reels/palm-spring-b0511-ytegqhia
292985,"Palm Spring, Petaling Jaya",1,1,0,550,6600,,PARTIAL,ROOM,Petaling Jaya,Selangor,True,3.15096,101.599,https://speedhome.com/reels/palm-spring-petaling-jaya-sjxphvyi
292136,"SS13, Subang Jaya",2,1,4,1100,13200,600.0,FULL,HIGHRISE,Subang Jaya,Selangor,False,3.072414088944673,101.59375621832804,https://speedhome.com/reels/ss13-subang-jaya-rdbolnxd
292047,"Taman Putra Perdana, Selangor",5,3,2,2200,26400,2000.0,NONE,LANDED,Dengkil,Selangor,True,3.0996907,101.6192056,https://speedhome.com/reels/taman-putra-perdana-selangor-cemugmrq
291823,"Zenith Residences, Petaling Jaya",3,2,2,2600,31200,990.0,FULL,HIGHRISE,Petaling Jaya,Selangor,False,3.1042207692,101.5918636322,https://speedhome.com/reels/zenith-residences-petaling-jaya-zxzcgxpb
291599,"Lagoon Perdana Apartment, Petaling Jaya",3,2,1,1300,15600,852.0,FULL,HIGHRISE,Subang Jaya,Selangor,False,3.061956439194271,101.61158826202156,https://speedhome.com/reels/lagoon-perdana-apartment-petaling-jaya-cqilncao
290742,"The Zizz, Petaling Jaya",3,2,2,1750,21000,675.0,PARTIAL,HIGHRISE,Petaling Jaya,Selangor,True,3.1987059855,101.5964984894,https://speedhome.com/reels/the-zizz-petaling-jaya-pdjhqwqx
289192,"Neo Damansara, Damansara Perdana",1,1,1,1450,17400,450.0,NONE,HIGHRISE,Petaling Jaya,Selangor,False,3.164298,101.613214,https://speedhome.com/reels/neo-damansara-damansara-perdana-amvqqazn
288858,"Pinnacle, Petaling Jaya",1,2,0,2500,30000,801.0,FULL,HIGHRISE,Petaling Jaya,Selangor,False,3.103915446,101.6399154067,https://speedhome.com/reels/pinnacle-petaling-jaya-hbnxulsh
288826,RIDZUAN CONDOMINIUM,3,2,1,2100,25200,1500.0,PARTIAL,HIGHRISE,Petaling Jaya,Selangor,False,3.079013,101.606412,https://speedhome.com/reels/ridzuan-condominium-kpkvyklx
285513,"Crown Tower Empire City, Petaling Jaya",1,1,1,1350,16200,466.0,FULL,HIGHRISE,Kuala Lumpur,Wilayah Persekutuan,False,3.167750373652699,101.61474414555113,https://speedhome.com/reels/crown-tower-empire-city-petaling-jaya-pkrguolf
284755,"SS15, Subang Jaya",1,1,1,1200,14400,,PARTIAL,ROOM,Subang Jaya,Selangor,False,3.079322,101.587194,https://speedhome.com/reels/ss15-subang-jaya-yfdwfrbd
282463,"Crown Tower Empire City, Petaling Jaya",1,1,0,1720,20640,797.0,FULL,HIGHRISE,Petaling Jaya,Selangor,True,3.1683152498,101.6154402494,https://speedhome.com/reels/crown-tower-empire-city-petaling-jaya-lalnbzzs
279894,"SS12, Subang Jaya",4,3,2,2400,28800,1650.0,PARTIAL,LANDED,Subang Jaya,Selangor,False,3.0787902,101.5949156,https://speedhome.com/reels/ss12-subang-jaya-uedfaycv
279336,"Crown Tower Empire City, Petaling Jaya.",0,1,0,1450,17400,446.0,FULL,HIGHRISE,Kuala Lumpur,Wilayah Persekutuan,False,3.167750373652699,101.61474414555113,https://speedhome.com/reels/empire-city-petaling-jaya-nvzlkdya
278737,"Yolo Signature Suites, Bandar Sunway",1,1,0,800,9600,,FULL,ROOM,Petaling Jaya,Selangor,False,3.080687599780013,101.6126504546428,https://speedhome.com/reels/yolo-signature-suites-bandar-sunway-mnwfvnkb
278484,SS2 Co living bungalow,1,1,0,950,11400,,FULL,ROOM,Petaling Jaya,Selangor,False,3.128880644506158,101.62781739101561,https://speedhome.com/reels/ss2-co-living-bungalow-mgmecvjc
277726,"121 Residences, Petaling Jaya",3,2,2,3300,39600,750.0,PARTIAL,HIGHRISE,Petaling Jaya,Selangor,False,3.1363546,101.6136109,https://speedhome.com/reels/121-residences-petaling-jaya-hpvfnght
276718,"121 Residences, Petaling Jaya",2,1,1,2800,33600,450.0,FULL,HIGHRISE,Petaling Jaya,Selangor,True,3.1363546,101.6136109,https://speedhome.com/reels/121-residences-petaling-jaya-mjvzacoe
273974,"Mossaz by Exsim, Petaling Jaya",0,1,0,1600,19200,327.0,PARTIAL,HIGHRISE,Petaling Jaya,Selangor,False,3.167270377104756,101.61685240899054,https://speedhome.com/reels/mossaz-by-exsim-petaling-jaya-mdpofpub
272498,Pelangi Utama Condominium Petaling Jaya,3,2,1,1800,21600,1137.0,FULL,HIGHRISE,Petaling Jaya,Selangor,False,3.1417410573405755,101.61549656110178,https://speedhome.com/reels/pelangi-utama-condominium-petaling-jaya-yqywwwme
271070,"Pinnacle, Kelana Jaya",1,2,0,1500,18000,852.0,NONE,HIGHRISE,Petaling Jaya,Selangor,False,3.1042850478,101.5934085846,https://speedhome.com/reels/pinnacle-kelana-jaya-nobztgum
269398,"Urbana Residences @ Ara Damansara, Ara Damansara",2,2,2,2600,31200,807.0,FULL,HIGHRISE,Petaling Jaya,Selangor,False,3.1113556654,101.5817785263,https://speedhome.com/reels/urbana-residences-ara-damansara-ara-damansara-dcvrulph
268558,"The Arcuz, Kelana Jaya",2,1,1,2500,30000,753.0,FULL,HIGHRISE,Petaling Jaya,Selangor,False,3.1085678367429006,101.592578588889,https://speedhome.com/reels/the-arcuz-kelana-jaya-tabzlqsw
267403,"Subang Avenue, Subang Jaya",1,1,0,1800,21600,557.0,FULL,HIGHRISE,Subang Jaya,Selangor,False,3.08282,101.589,https://speedhome.com/reels/subang-avenue-gijsvrjd
267332,"Palm Spring, Kota Damansara",3,2,1,2000,24000,936.0,FULL,HIGHRISE,Petaling Jaya,Selangor,False,3.15096,101.599,https://speedhome.com/reels/palm-spring-kota-damansara-edngvvky
267280,"The Zizz Damansara Damai, Petaling Jaya",1,1,2,650,7800,,FULL,ROOM,Petaling Jaya,Selangor,False,3.1987059855,101.5964984894,https://speedhome.com/reels/the-zizz-damansara-damai-petaling-jaya-zvmwtsnu
266957,"Ridzuan Condominium, Bandar Sunway",3,2,1,2400,28800,1433.0,FULL,HIGHRISE,Petaling Jaya,Selangor,True,3.079013,101.606412,https://speedhome.com/reels/ridzuan-condominium-bandar-sunway-tqtoxulw
266857,"I Residence, Kota Damansara",1,1,0,700,8400,,FULL,ROOM,Petaling Jaya,Selangor,False,3.150575,101.582615,https://speedhome.com/reels/i-residence-kota-damansara-wxvbjlfa
265860,"Empire City, Damansara Perdana",0,1,0,1250,15000,580.0,PARTIAL,HIGHRISE,Petaling Jaya,Selangor,False,3.1683152498,101.6154402494,https://speedhome.com/reels/empire-city-damansara-perdana-ykxfojnb
265007,"Palm Spring Condominium, Kota Damansara",1,1,0,850,10200,,FULL,ROOM,Petaling Jaya,Selangor,False,3.15291844372793,101.59950127049687,https://speedhome.com/reels/palm-spring-condominium-kota-damansara-wzimaofo
262974,Kota Damansara,1,1,1,800,9600,300.0,FULL,ROOM,Petaling Jaya,Selangor,False,3.1674657,101.58734,https://speedhome.com/reels/kota-damansara-zqoebfxk
261483,"PJ Midtown, Petaling Jaya",3,2,3,4200,50400,1227.0,FULL,HIGHRISE,Petaling Jaya,Selangor,False,3.1135237107901403,101.64089012145106,https://speedhome.com/reels/pj-midtown-petaling-jaya-bxjgblly
255653,"Residensi Suasana @ Damai, Damansara Damai",1,1,0,790,9480,,FULL,ROOM,Petaling Jaya,Selangor,False,3.19444247619888,101.5916147018748,https://speedhome.com/reels/residensi-suasana-damai-damansara-damai-iabmcval
255579,"Residensi Suasana @ Damai, Damansara Damai",1,1,0,790,9480,,FULL,ROOM,Petaling Jaya,Selangor,False,3.19444247619888,101.5916147018748,https://speedhome.com/reels/residensi-suasana-damai-damansara-damai-xghdqgnf
254901,"Empire City, Petaling Jaya",1,1,0,1300,15600,448.0,PARTIAL,HIGHRISE,Kuala Lumpur,Wilayah Persekutuan,True,3.1683152498,101.6154402494,https://speedhome.com/reels/empire-city-petaling-jaya-vjkhjnvi
252417,"Eastwood Terrace, Petaling Jaya",4,2,1,2300,27600,2000.0,PARTIAL,LANDED,Petaling Jaya,Selangor,True,3.129634202497201,101.60785564977336,https://speedhome.com/reels/eastwood-terrace-petaling-jaya-tudkiwyf
251854,"The Azure Residences, Kelana Jaya",1,1,0,1400,16800,,FULL,ROOM,Petaling Jaya,Selangor,False,3.1043371,101.5960487,https://speedhome.com/reels/the-azure-residences-kelana-jaya-dfmltwuk
251393,"PJS 7, Bandar Sunway, Petaling Jaya",1,1,0,490,5880,,PARTIAL,ROOM,Subang Jaya,Selangor,False,3.0716728,101.6140331,https://speedhome.com/reels/pjs-7-bandar-sunway-petaling-jaya-vprbmnqn
251237,"Maxwell Towers, Petaling Jaya",1,1,0,650,7800,,FULL,ROOM,Petaling Jaya,Selangor,False,3.0855118,101.6611711,https://speedhome.com/reels/maxwell-towers-petaling-jaya-fnsspqjz
251021,"Jalan Kajang 18, Petaling Jaya",1,1,2,880,10560,,FULL,ROOM,Petaling Jaya,Selangor,True,3.082907319188311,101.65763566244229,https://speedhome.com/reels/jalan-kajang-18-petaling-jaya-qmrgidqw
248828,"I Residence, Kota Damansara",1,1,0,800,9600,,FULL,ROOM,Petaling Jaya,Selangor,False,3.150575,101.582615,https://speedhome.com/reels/i-residence-kota-damansara-wbgupkoe
246289,"Boulevard 51, Petaling Jaya",0,1,1,1300,15600,473.0,FULL,HIGHRISE,Petaling Jaya,Selangor,True,3.087873,101.624888,https://speedhome.com/reels/boulevard-51-petaling-jaya-tbnlctbh
245953,"The Zizz Condominium, Damansara Damai",3,2,2,1700,20400,751.0,PARTIAL,HIGHRISE,Petaling Jaya,Selangor,False,3.1987059855,101.5964984894,https://speedhome.com/reels/the-zizz-condominium-damansara-damai-ydsobuiz
245382,"Empire Damansara, Damansara Perdana",1,2,1,2100,25200,850.0,FULL,HIGHRISE,Petaling Jaya,Selangor,False,3.1677474904870433,101.61243081090967,https://speedhome.com/reels/empire-damansara-damansara-perdana-dwdohwfx
245132,"Ridzuan Condominium, Bandar Sunway",0,1,1,1200,14400,520.0,FULL,HIGHRISE,Petaling Jaya,Selangor,False,3.079013,101.606412,https://speedhome.com/reels/ridzuan-condominium-bandar-sunway-yyiogune
244218,"SS14, Subang Jaya",1,1,0,550,6600,,PARTIAL,ROOM,Subang Jaya,Selangor,False,3.0670242565,101.5902543068,https://speedhome.com/reels/ss14-subang-jaya-picsipku
240433,"SuriaMas, Bandar Sunway",4,2,2,2200,26400,1245.0,FULL,HIGHRISE,Petaling Jaya,Selangor,False,3.080673128,101.605733335,https://speedhome.com/reels/suriamas-bandar-sunway-glwajwjs
238955,"HighPark Suites, Kelana Jaya",0,1,1,1100,13200,300.0,PARTIAL,HIGHRISE,Petaling Jaya,Selangor,False,3.1028119965,101.598944664,https://speedhome.com/reels/highpark-suites-kelana-jaya-zkysyplv
237568,The Grand SS13 Subang,2,2,1,2100,25200,548.0,FULL,HIGHRISE,Subang Jaya,Selangor,False,3.0701009,101.596767,https://speedhome.com/reels/the-grand-ss13-subang-dzpykosq
237424,PJ8 Serviced Residences,1,1,1,2100,25200,700.0,FULL,HIGHRISE,Petaling Jaya,Selangor,True,3.1015252,101.6398476,https://speedhome.com/reels/pj8-serviced-residences-intehbyb
237005,Pelangi Damansara Condo,3,2,1,2000,24000,950.0,FULL,HIGHRISE,Petaling Jaya,Selangor,True,3.1540589417536893,101.60454608094355,https://speedhome.com/reels/pelangi-damansara-condo-vjykoqof
234501,"The Zizz, Damansara Damai",4,1,3,2300,27600,1228.0,FULL,HIGHRISE,Petaling Jaya,Selangor,False,3.1987059855,101.5964984894,https://speedhome.com/reels/the-zizz-damansara-damai-kvkffoqf
232814,"One Damansara Condominium, Petaling Jaya",3,2,1,1900,22800,986.0,PARTIAL,HIGHRISE,Petaling Jaya,Selangor,False,3.1977428,101.5929121,https://speedhome.com/reels/one-damansara-condominium-ydlwhixu
228099,"Kasturi Idaman Condominium, Kota Damansara",3,2,1,1400,16800,946.0,NONE,HIGHRISE,Petaling Jaya,Selangor,False,3.1775063,101.5759472,https://speedhome.com/reels/kasturi-idaman-condominium-kota-damansara-uhdqpjcm
227523,Casa Tropicana,2,2,1,2200,26400,1007.0,PARTIAL,HIGHRISE,Petaling Jaya,Selangor,False,3.1372073,101.5942519,https://speedhome.com/reels/casa-tropicana-kccmhczz
222172,"The Azure Residences, Kelana Jaya",1,1,0,1100,13200,,FULL,ROOM,Petaling Jaya,Selangor,True,3.1043371,101.5960487,https://speedhome.com/reels/the-azure-residences-kelana-jaya-qzmqfdsf
221514,"The Azure Residences, Kelana Jaya",1,1,0,1200,14400,400.0,FULL,ROOM,Petaling Jaya,Selangor,False,3.1042850478,101.5961229801,https://speedhome.com/reels/the-azure-residences-kelana-jaya-dthkkiiz
219316,Block E- Apartment Idaman,3,1,0,800,9600,650.0,PARTIAL,HIGHRISE,Bandar Puncak Alam,Selangor,False,3.1901898141,101.5917026997,https://speedhome.com/reels/block-e430-apartment-idaman-cdvpjqft
218968,"Lumi Tropicana, Petaling Jaya",0,1,1,1600,19200,452.0,NONE,HIGHRISE,Petaling Jaya,Selangor,False,3.1297604745,101.5948677063,https://speedhome.com/reels/lumi-tropicana-petaling-jaya-eiukumrv
218622,PPR Lembah Subang 2,3,1,0,950,11400,700.0,NONE,HIGHRISE,Petaling Jaya,Selangor,False,3.109289836861833,101.58803539709702,https://speedhome.com/reels/ppr-lembah-subang-2-weicnfzh
215813,"Apartment Harmoni, Damansara Damai",3,2,1,650,7800,650.0,PARTIAL,HIGHRISE,Petaling Jaya,Selangor,True,3.195454815316764,101.58360783795926,https://speedhome.com/reels/apartment-harmoni-damansara-damai-tgsjblmv
211433,One Damansara Condominium,2,2,1,1200,14400,900.0,NONE,HIGHRISE,Petaling Jaya,Selangor,False,3.1978169,101.5929472,https://speedhome.com/reels/one-damansara-condominium-cvodgjev
209382,Pelangi Damansara Condo,3,2,1,1400,16800,852.0,PARTIAL,HIGHRISE,Petaling Jaya,Selangor,True,3.153243,101.603526,https://speedhome.com/reels/pelangi-damansara-condo-nsjbujqa
207686,"Empire Damansara, Damansara Perdana",1,2,0,1400,16800,600.0,PARTIAL,HIGHRISE,Petaling Jaya,Selangor,False,3.1657335493,101.6121304035,https://speedhome.com/reels/empire-damansara-damansara-perdana-ghhfdlnc
207080,Bayu Puteri Apartment,4,2,2,1800,21600,855.0,PARTIAL,HIGHRISE,Petaling Jaya,Selangor,False,3.1321922849,101.598059535,https://speedhome.com/reels/bayu-puteri-apartment-gvfihhkw
197338,"The Zizz, Damansara Damai",1,1,0,550,6600,,FULL,ROOM,Petaling Jaya,Selangor,False,3.197870439737363,101.59665538499658,https://speedhome.com/reels/the-zizz-damansara-damai-hjczecpc
197337,"The Zizz, Damansara Damai",1,1,2,550,6600,,FULL,ROOM,Petaling Jaya,Selangor,False,3.1978650836725926,101.59673988821136,https://speedhome.com/reels/the-zizz-damansara-damai-zuzewgpl
194190,"The Zizz Damansara Damai, Petaling Jaya",1,1,2,450,5400,745.0,FULL,ROOM,Petaling Jaya,Selangor,True,3.1987059855,101.5964984894,https://speedhome.com/reels/the-zizz-damansara-damai-petaling-jaya-bwlfyatn
194050,Cosmo The Zizz Damansara Damai,1,1,1,550,6600,742.0,FULL,ROOM,Petaling Jaya,Selangor,False,3.1976344404699804,101.59707579140166,https://speedhome.com/reels/cosmo-the-zizz-damansara-damai-marmkmtn
190614,"Empire City, Damansara Perdana",0,1,0,3200,38400,1044.0,PARTIAL,HIGHRISE,Kuala Lumpur,Wilayah Persekutuan,True,3.1683152498,101.6154402494,https://speedhome.com/reels/empire-city-damansara-perdana-tjklpzzc
190380,"Amcorp Serviced Suites, Petaling Jaya",0,1,0,1700,20400,495.0,FULL,HIGHRISE,Petaling Jaya,Selangor,False,3.1050028248,101.6470849514,https://speedhome.com/reels/amcorp-serviced-suites-petaling-jaya-jrwpymay
187205,"Ritze Perdana 1, Damansara Perdana",0,1,1,1100,13200,382.0,FULL,HIGHRISE,Petaling Jaya,Selangor,False,3.166273,101.605081,https://speedhome.com/reels/ritze-perdana-1-damansara-perdana-mruibazl
170549,Kelana Jaya SS7 Master Room to let,1,1,1,750,9000,,FULL,ROOM,Petaling Jaya,Selangor,False,3.0739535,101.5907669,https://speedhome.com/reels/kelana-jaya-ss7-female-only-master-room-to-let-gsszzhaj
164529,121 residence,2,1,1,3166,37992,450.0,FULL,HIGHRISE,Petaling Jaya,Selangor,True,3.1363546,101.6136109,https://speedhome.com/reels/121-residence-aslauukf
141092,"Cantara Residences, Ara Damansara",1,1,2,2300,27600,646.0,PARTIAL,HIGHRISE,,,False,3.1175691992,101.5901470184,https://speedhome.com/reels/cantara-residences-ara-damansara-abfofvnz
139866,Kelana Puteri Condo,3,2,1,1400,16800,1035.0,PARTIAL,HIGHRISE,,,False,3.107907,101.594474,https://speedhome.com/reels/kelana-puteri-condo-vqoswyxl
137548,Bayu Puteri Apartment,3,2,2,1600,19200,850.0,PARTIAL,HIGHRISE,,,False,3.1321481,101.5980368,https://speedhome.com/reels/bayu-puteri-apartment-zqxhsxat
136582,"Tropicana Gardens, Kota Damansara",1,1,1,2300,27600,604.0,PARTIAL,HIGHRISE,,,True,3.1493701322,101.5914532542,https://speedhome.com/reels/tropicana-gardens-kota-damansara-hsfrpgqn
135856,"Empire City Halo Sunday, Petaling Jaya",1,1,0,1300,15600,462.0,FULL,HIGHRISE,Petaling Jaya,Selangor,True,3.1681718,101.6152626,https://speedhome.com/reels/empire-city-halo-sunday-petaling-jaya-qchfjnmk
135202,"Studio concept room @ Landed house near KTM, Midvalley, Old klang road",1,1,3,950,11400,,FULL,ROOM,Petaling Jaya,Selangor,True,3.0827370641131324,101.6576938292776,https://speedhome.com/reels/studio-concept-room-landed-house-near-ktm-midvalley-old-klang-road-bzjchqus
134567,"Icon City, Petaling Jaya",1,1,1,1860,22320,358.0,FULL,HIGHRISE,,,False,3.0868226,101.6142011,https://speedhome.com/reels/icon-city-petaling-jaya-hdoygvlh
131535,SS 14 SUBANG JAYA BRAND NEW ROOMS TO LET! AFFORDABLE!!,1,1,0,499,5988,,FULL,ROOM,,,False,3.066354996158299,101.58639023415918,https://speedhome.com/reels/ss-14-subang-jaya-brand-new-rooms-to-let-affordable-jlbibnau
130805,Kelana Jaya SS7 Room To Let,1,1,1,600,7200,,FULL,ROOM,,,False,3.0904865,101.6029358,https://speedhome.com/reels/kelana-jaya-ss7-room-to-let-cchctlfj
125129,"Ritze Perdana 1, Damansara Perdana",1,1,1,1350,16200,382.0,FULL,HIGHRISE,,,False,3.16625,101.605,https://speedhome.com/reels/ritze-perdana-1-damansara-perdana-guehsdyb
122440,"Empire City Halo Sunday, Petaling Jaya",0,1,0,1350,16200,500.0,FULL,HIGHRISE,,,False,3.1681718,101.6152626,https://speedhome.com/reels/empire-city-halo-sunday-petaling-jaya-iofoaepv
119317,"BU 2, Petaling Jaya",1,1,0,550,6600,,FULL,ROOM,,,True,3.1430744,101.6115339,https://speedhome.com/reels/bu-2-petaling-jaya-fmlrjibp
116834,"Empire Damansara, Damansara Perdana",1,1,0,1100,13200,363.0,PARTIAL,HIGHRISE,,,False,3.1657335493,101.6121304035,https://speedhome.com/reels/empire-damansara-damansara-perdana-myzvbkbd
116665,Metropolitan Square Damansara Perdana 3r2b,3,2,2,2200,26400,1259.0,FULL,HIGHRISE,,,True,3.165488,101.610578,https://speedhome.com/reels/metropolitan-square-damansara-perdana-3r2b-taxsmksz
106293,"Tower M, Empire City",1,2,1,1500,18000,915.0,PARTIAL,HIGHRISE,,,True,3.169517260847828,101.61585443572048,https://speedhome.com/reels/tower-m-empire-city-lnpjbpgj
105843,"Flora Damansara, Damansara Perdana",3,2,0,1100,13200,850.0,NONE,HIGHRISE,,,False,3.176253,101.617398,https://speedhome.com/reels/flora-damansara-damansara-perdana-gniuizam
100536,"Ritze Perdana 2, Damansara Perdana",1,1,1,1550,18600,849.0,PARTIAL,HIGHRISE,,,False,3.164062,101.610661,https://speedhome.com/reels/ritze-perdana-2-damansara-perdana-vlmvfuos
91317,"Metropolitan Square, Petaling Jaya",3,2,2,2500,30000,1100.0,FULL,HIGHRISE,,,False,3.1661291,101.6080207,https://speedhome.com/reels/metropolitan-square-petaling-jaya-hafznciv
91311,"Empire City, Damansara Perdana",1,1,0,1400,16800,450.0,FULL,HIGHRISE,,,False,3.1683607776152236,101.61625597625971,https://speedhome.com/reels/empire-city-damansara-perdana-nxarkqxl
75678,"The Grand SOFO (PJ Grand SOFO) in Kelana Jaya, Petaling Jaya",1,1,0,2000,24000,400.0,FULL,HIGHRISE,,,False,3.1019044,101.5979325,https://speedhome.com/reels/kelana-grand-sofo-studio-kfqvcptu
18052,"My Loft Empire City, Petaling Jaya",1,1,1,2100,25200,768.0,FULL,HIGHRISE,Petaling Jaya,Selangor,False,3.1677874949507023,101.6155443,https://speedhome.com/reels/my-loft-empire-city-petaling-jaya-rxpzcnuk
